{
    "06004": {
        "name": "Coquimatl\u00e1n",
        "state": "Colima",
        "code": "06004",
        "lat": 19.188128817224708,
        "lon": -103.92075048589281,
        "hasSupercharger": false,
        "edges": []
    },
    "07051": {
        "name": "Mapastepec",
        "state": "Chiapas",
        "code": "07051",
        "lat": 15.460924811691712,
        "lon": -92.89171531178879,
        "hasSupercharger": false,
        "edges": []
    },
    "07076": {
        "name": "Sabanilla",
        "state": "Chiapas",
        "code": "07076",
        "lat": 17.31982367250815,
        "lon": -92.61075877375268,
        "hasSupercharger": false,
        "edges": []
    },
    "07111": {
        "name": "Zinacant\u00e1n",
        "state": "Chiapas",
        "code": "07111",
        "lat": 16.72191551046949,
        "lon": -92.78198278131104,
        "hasSupercharger": false,
        "edges": []
    },
    "08010": {
        "name": "Buenaventura",
        "state": "Chihuahua",
        "code": "08010",
        "lat": 30.058139920082457,
        "lon": -107.1214009141779,
        "hasSupercharger": false,
        "edges": []
    },
    "10012": {
        "name": "Lerdo",
        "state": "Durango",
        "code": "10012",
        "lat": 25.477644319626215,
        "lon": -103.68583275892756,
        "hasSupercharger": false,
        "edges": []
    },
    "12022": {
        "name": "Coyuca de Catal\u00e1n",
        "state": "Guerrero",
        "code": "12022",
        "lat": 18.081794986837668,
        "lon": -100.92990687296435,
        "hasSupercharger": false,
        "edges": []
    },
    "12035": {
        "name": "Iguala de la Independencia",
        "state": "Guerrero",
        "code": "12035",
        "lat": 18.226804584474202,
        "lon": -99.58212282539174,
        "hasSupercharger": false,
        "edges": []
    },
    "12041": {
        "name": "Malinaltepec",
        "state": "Guerrero",
        "code": "12041",
        "lat": 17.18122220609279,
        "lon": -98.69546233717014,
        "hasSupercharger": false,
        "edges": []
    },
    "12062": {
        "name": "Tlacoachistlahuaca",
        "state": "Guerrero",
        "code": "12062",
        "lat": 16.939057975759834,
        "lon": -98.27712767341802,
        "hasSupercharger": false,
        "edges": []
    },
    "12066": {
        "name": "Tlapa de Comonfort",
        "state": "Guerrero",
        "code": "12066",
        "lat": 17.56217102942423,
        "lon": -98.61554085201443,
        "hasSupercharger": false,
        "edges": []
    },
    "12071": {
        "name": "Xochistlahuaca",
        "state": "Guerrero",
        "code": "12071",
        "lat": 16.869427263594027,
        "lon": -98.15726710470292,
        "hasSupercharger": false,
        "edges": []
    },
    "13011": {
        "name": "Atlapexco",
        "state": "Hidalgo",
        "code": "13011",
        "lat": 21.02730563218825,
        "lon": -98.36354664585207,
        "hasSupercharger": false,
        "edges": []
    },
    "13018": {
        "name": "Chapulhuac\u00e1n",
        "state": "Hidalgo",
        "code": "13018",
        "lat": 21.128437094912297,
        "lon": -98.94967352867431,
        "hasSupercharger": false,
        "edges": []
    },
    "13065": {
        "name": "Tetepango",
        "state": "Hidalgo",
        "code": "13065",
        "lat": 20.114407205886465,
        "lon": -99.15183408388845,
        "hasSupercharger": false,
        "edges": []
    },
    "13083": {
        "name": "Zempoala",
        "state": "Hidalgo",
        "code": "13083",
        "lat": 19.92313148260627,
        "lon": -98.67233878210565,
        "hasSupercharger": false,
        "edges": []
    },
    "14004": {
        "name": "Amacueca",
        "state": "Jalisco",
        "code": "14004",
        "lat": 19.99994310348076,
        "lon": -103.62257921688008,
        "hasSupercharger": false,
        "edges": []
    },
    "14046": {
        "name": "Jalostotitl\u00e1n",
        "state": "Jalisco",
        "code": "14046",
        "lat": 21.191664348956095,
        "lon": -102.48934145190793,
        "hasSupercharger": false,
        "edges": []
    },
    "14072": {
        "name": "San Diego de Alejandr\u00eda",
        "state": "Jalisco",
        "code": "14072",
        "lat": 20.97012470453491,
        "lon": -102.02345847626597,
        "hasSupercharger": false,
        "edges": []
    },
    "14084": {
        "name": "Talpa de Allende",
        "state": "Jalisco",
        "code": "14084",
        "lat": 20.299440033444856,
        "lon": -104.95347579288664,
        "hasSupercharger": false,
        "edges": []
    },
    "14090": {
        "name": "Tenamaxtl\u00e1n",
        "state": "Jalisco",
        "code": "14090",
        "lat": 20.146885229317608,
        "lon": -104.16552469205719,
        "hasSupercharger": false,
        "edges": []
    },
    "14104": {
        "name": "Totatiche",
        "state": "Jalisco",
        "code": "14104",
        "lat": 21.958914054358047,
        "lon": -103.4785743687126,
        "hasSupercharger": false,
        "edges": []
    },
    "15013": {
        "name": "Atizap\u00e1n de Zaragoza",
        "state": "M\u00e9xico",
        "code": "15013",
        "lat": 19.56480115782134,
        "lon": -99.2740433683441,
        "hasSupercharger": true,
        "edges": []
    },
    "15025": {
        "name": "Chalco",
        "state": "M\u00e9xico",
        "code": "15025",
        "lat": 19.253595364910407,
        "lon": -98.83168677534364,
        "hasSupercharger": false,
        "edges": []
    },
    "15069": {
        "name": "Papalotla",
        "state": "M\u00e9xico",
        "code": "15069",
        "lat": 19.559881027880465,
        "lon": -98.85786095775845,
        "hasSupercharger": false,
        "edges": []
    },
    "15116": {
        "name": "Zacazonapan",
        "state": "M\u00e9xico",
        "code": "15116",
        "lat": 19.060817305983413,
        "lon": -100.25611788812864,
        "hasSupercharger": false,
        "edges": []
    },
    "16041": {
        "name": "Irimbo",
        "state": "Michoac\u00e1n de Ocampo",
        "code": "16041",
        "lat": 19.716801236585308,
        "lon": -100.46799664714091,
        "hasSupercharger": false,
        "edges": []
    },
    "17004": {
        "name": "Ayala",
        "state": "Morelos",
        "code": "17004",
        "lat": 18.71621710699534,
        "lon": -98.97896831192682,
        "hasSupercharger": false,
        "edges": []
    },
    "17010": {
        "name": "Jantetelco",
        "state": "Morelos",
        "code": "17010",
        "lat": 18.685408619427776,
        "lon": -98.76471121062026,
        "hasSupercharger": false,
        "edges": []
    },
    "17011": {
        "name": "Jiutepec",
        "state": "Morelos",
        "code": "17011",
        "lat": 18.885158174297498,
        "lon": -99.16645800138133,
        "hasSupercharger": false,
        "edges": []
    },
    "17019": {
        "name": "Tepalcingo",
        "state": "Morelos",
        "code": "17019",
        "lat": 18.574776430941025,
        "lon": -98.89425112899166,
        "hasSupercharger": false,
        "edges": []
    },
    "19023": {
        "name": "General Trevi\u00f1o",
        "state": "Nuevo Le\u00f3n",
        "code": "19023",
        "lat": 26.212648788003868,
        "lon": -99.44596500509539,
        "hasSupercharger": false,
        "edges": []
    },
    "20017": {
        "name": "La Compa\u00f1\u00eda",
        "state": "Oaxaca",
        "code": "20017",
        "lat": 16.57979990459216,
        "lon": -96.85145687913256,
        "hasSupercharger": false,
        "edges": []
    },
    "20027": {
        "name": "Chiquihuitl\u00e1n de Benito Ju\u00e1rez",
        "state": "Oaxaca",
        "code": "20027",
        "lat": 17.992471655954773,
        "lon": -96.74874232120855,
        "hasSupercharger": false,
        "edges": []
    },
    "20039": {
        "name": "Heroica Ciudad de Huajuapan de Le\u00f3n",
        "state": "Oaxaca",
        "code": "20039",
        "lat": 17.855143778959334,
        "lon": -97.79984955384728,
        "hasSupercharger": false,
        "edges": []
    },
    "20051": {
        "name": "Magdalena Teitipac",
        "state": "Oaxaca",
        "code": "20051",
        "lat": 16.890166459182264,
        "lon": -96.55748962549754,
        "hasSupercharger": false,
        "edges": []
    },
    "20070": {
        "name": "Pinotepa de Don Luis",
        "state": "Oaxaca",
        "code": "20070",
        "lat": 16.40368037012715,
        "lon": -97.96606795844521,
        "hasSupercharger": false,
        "edges": []
    },
    "20084": {
        "name": "San Agust\u00edn Etla",
        "state": "Oaxaca",
        "code": "20084",
        "lat": 17.201261321292268,
        "lon": -96.7182579920247,
        "hasSupercharger": false,
        "edges": []
    },
    "20088": {
        "name": "San Andr\u00e9s Cabecera Nueva",
        "state": "Oaxaca",
        "code": "20088",
        "lat": 16.847434493079234,
        "lon": -97.79208506512383,
        "hasSupercharger": false,
        "edges": []
    },
    "20115": {
        "name": "San Bartolo Coyotepec",
        "state": "Oaxaca",
        "code": "20115",
        "lat": 16.941142337762283,
        "lon": -96.69561164371095,
        "hasSupercharger": false,
        "edges": []
    },
    "20126": {
        "name": "San Crist\u00f3bal Amatl\u00e1n",
        "state": "Oaxaca",
        "code": "20126",
        "lat": 16.307320430835368,
        "lon": -96.38300664871466,
        "hasSupercharger": false,
        "edges": []
    },
    "20135": {
        "name": "San Felipe Tejal\u00e1pam",
        "state": "Oaxaca",
        "code": "20135",
        "lat": 17.092898987858387,
        "lon": -96.88523367631326,
        "hasSupercharger": false,
        "edges": []
    },
    "20138": {
        "name": "San Francisco Cajonos",
        "state": "Oaxaca",
        "code": "20138",
        "lat": 17.18086125148771,
        "lon": -96.26464041181119,
        "hasSupercharger": false,
        "edges": []
    },
    "20142": {
        "name": "San Francisco Huehuetl\u00e1n",
        "state": "Oaxaca",
        "code": "20142",
        "lat": 18.19523927834709,
        "lon": -96.9361816296878,
        "hasSupercharger": false,
        "edges": []
    },
    "20151": {
        "name": "San Francisco Teopan",
        "state": "Oaxaca",
        "code": "20151",
        "lat": 17.89041262942221,
        "lon": -97.54353016026465,
        "hasSupercharger": false,
        "edges": []
    },
    "20165": {
        "name": "San Jos\u00e9 Ayuquila",
        "state": "Oaxaca",
        "code": "20165",
        "lat": 17.95442305122787,
        "lon": -97.97216844638557,
        "hasSupercharger": false,
        "edges": []
    },
    "20190": {
        "name": "San Juan Cotzoc\u00f3n",
        "state": "Oaxaca",
        "code": "20190",
        "lat": 17.318348525397578,
        "lon": -95.49676965455828,
        "hasSupercharger": false,
        "edges": []
    },
    "20194": {
        "name": "San Juan del R\u00edo",
        "state": "Oaxaca",
        "code": "20194",
        "lat": 16.89177705893545,
        "lon": -96.1613483514073,
        "hasSupercharger": false,
        "edges": []
    },
    "20201": {
        "name": "San Juan Juquila Vijanos",
        "state": "Oaxaca",
        "code": "20201",
        "lat": 17.32400842395911,
        "lon": -96.30172934562862,
        "hasSupercharger": false,
        "edges": []
    },
    "20239": {
        "name": "San Mart\u00edn Huamel\u00falpam",
        "state": "Oaxaca",
        "code": "20239",
        "lat": 17.396295222205655,
        "lon": -97.60896397491842,
        "hasSupercharger": false,
        "edges": []
    },
    "20268": {
        "name": "San Miguel Ejutla",
        "state": "Oaxaca",
        "code": "20268",
        "lat": 16.596192706389918,
        "lon": -96.73660538756548,
        "hasSupercharger": false,
        "edges": []
    },
    "20275": {
        "name": "San Miguel Quetzaltepec",
        "state": "Oaxaca",
        "code": "20275",
        "lat": 16.97567317307696,
        "lon": -95.78021942629698,
        "hasSupercharger": false,
        "edges": []
    },
    "20280": {
        "name": "Villa Talea de Castro",
        "state": "Oaxaca",
        "code": "20280",
        "lat": 17.367384974030756,
        "lon": -96.23183564098274,
        "hasSupercharger": false,
        "edges": []
    },
    "20307": {
        "name": "San Pedro Huamelula",
        "state": "Oaxaca",
        "code": "20307",
        "lat": 15.974164433595588,
        "lon": -95.7823643388306,
        "hasSupercharger": false,
        "edges": []
    },
    "20352": {
        "name": "San Sim\u00f3n Zahuatl\u00e1n",
        "state": "Oaxaca",
        "code": "20352",
        "lat": 17.83536874135932,
        "lon": -97.99814711557484,
        "hasSupercharger": false,
        "edges": []
    },
    "20400": {
        "name": "Santa Mar\u00eda Camotl\u00e1n",
        "state": "Oaxaca",
        "code": "20400",
        "lat": 17.869617846346234,
        "lon": -97.64995399436611,
        "hasSupercharger": false,
        "edges": []
    },
    "20404": {
        "name": "Santa Mar\u00eda Chacho\u00e1pam",
        "state": "Oaxaca",
        "code": "20404",
        "lat": 17.56576318320521,
        "lon": -97.26064735630696,
        "hasSupercharger": false,
        "edges": []
    },
    "20414": {
        "name": "Santa Mar\u00eda Huazolotitl\u00e1n",
        "state": "Oaxaca",
        "code": "20414",
        "lat": 16.20861794922669,
        "lon": -97.92639130625363,
        "hasSupercharger": false,
        "edges": []
    },
    "20426": {
        "name": "Santa Mar\u00eda Pe\u00f1oles",
        "state": "Oaxaca",
        "code": "20426",
        "lat": 17.048442363357147,
        "lon": -97.03343089841789,
        "hasSupercharger": false,
        "edges": []
    },
    "20437": {
        "name": "Santa Mar\u00eda Tlahuitoltepec",
        "state": "Oaxaca",
        "code": "20437",
        "lat": 17.11428661490712,
        "lon": -96.05367275748326,
        "hasSupercharger": false,
        "edges": []
    },
    "20447": {
        "name": "Santa Mar\u00eda Zacatepec",
        "state": "Oaxaca",
        "code": "20447",
        "lat": 16.778716913138545,
        "lon": -97.97374225342669,
        "hasSupercharger": false,
        "edges": []
    },
    "20482": {
        "name": "Santiago Pinotepa Nacional",
        "state": "Oaxaca",
        "code": "20482",
        "lat": 16.292322825081655,
        "lon": -98.12142679638183,
        "hasSupercharger": false,
        "edges": []
    },
    "20483": {
        "name": "Santiago Suchilquitongo",
        "state": "Oaxaca",
        "code": "20483",
        "lat": 17.231316201753888,
        "lon": -96.9103926321898,
        "hasSupercharger": false,
        "edges": []
    },
    "20529": {
        "name": "Santos Reyes Yucun\u00e1",
        "state": "Oaxaca",
        "code": "20529",
        "lat": 17.772415397949544,
        "lon": -98.0059136901694,
        "hasSupercharger": false,
        "edges": []
    },
    "20543": {
        "name": "Tataltepec de Vald\u00e9s",
        "state": "Oaxaca",
        "code": "20543",
        "lat": 16.309653237463237,
        "lon": -97.53494534634397,
        "hasSupercharger": false,
        "edges": []
    },
    "20556": {
        "name": "La Trinidad Vista Hermosa",
        "state": "Oaxaca",
        "code": "20556",
        "lat": 17.777176063595483,
        "lon": -97.50146924535582,
        "hasSupercharger": false,
        "edges": []
    },
    "20567": {
        "name": "Zapotitl\u00e1n Lagunas",
        "state": "Oaxaca",
        "code": "20567",
        "lat": 17.776174408281005,
        "lon": -98.39696035474071,
        "hasSupercharger": false,
        "edges": []
    },
    "21057": {
        "name": "Honey",
        "state": "Puebla",
        "code": "21057",
        "lat": 20.260156152891394,
        "lon": -98.23887035041191,
        "hasSupercharger": false,
        "edges": []
    },
    "21075": {
        "name": "Hueyapan",
        "state": "Puebla",
        "code": "21075",
        "lat": 19.921820845847588,
        "lon": -97.40113389208858,
        "hasSupercharger": false,
        "edges": []
    },
    "21095": {
        "name": "La Magdalena Tlatlauquitepec",
        "state": "Puebla",
        "code": "21095",
        "lat": 18.74182546484724,
        "lon": -98.10248204902109,
        "hasSupercharger": false,
        "edges": []
    },
    "21111": {
        "name": "Pantepec",
        "state": "Puebla",
        "code": "21111",
        "lat": 20.55490510957446,
        "lon": -97.87682818865478,
        "hasSupercharger": false,
        "edges": []
    },
    "21152": {
        "name": "Soltepec",
        "state": "Puebla",
        "code": "21152",
        "lat": 19.12065973998027,
        "lon": -97.74608872680186,
        "hasSupercharger": false,
        "edges": []
    },
    "21154": {
        "name": "Tecamachalco",
        "state": "Puebla",
        "code": "21154",
        "lat": 18.859297476822604,
        "lon": -97.73122120613537,
        "hasSupercharger": false,
        "edges": []
    },
    "21164": {
        "name": "Tepeaca",
        "state": "Puebla",
        "code": "21164",
        "lat": 19.011934148161693,
        "lon": -97.87616300110298,
        "hasSupercharger": false,
        "edges": []
    },
    "21183": {
        "name": "Tlaola",
        "state": "Puebla",
        "code": "21183",
        "lat": 20.16730608935935,
        "lon": -97.90981023860098,
        "hasSupercharger": false,
        "edges": []
    },
    "21186": {
        "name": "Tlatlauquitepec",
        "state": "Puebla",
        "code": "21186",
        "lat": 19.842143155670062,
        "lon": -97.49934538394245,
        "hasSupercharger": false,
        "edges": []
    },
    "22016": {
        "name": "San Juan del R\u00edo",
        "state": "Quer\u00e9taro",
        "code": "22016",
        "lat": 20.368911000084974,
        "lon": -100.00038091696156,
        "hasSupercharger": true,
        "edges": []
    },
    "25004": {
        "name": "Concordia",
        "state": "Sinaloa",
        "code": "25004",
        "lat": 23.414167927027965,
        "lon": -105.99178810935089,
        "hasSupercharger": false,
        "edges": []
    },
    "25012": {
        "name": "Mazatl\u00e1n",
        "state": "Sinaloa",
        "code": "25012",
        "lat": 23.468308206524924,
        "lon": -106.30602766579905,
        "hasSupercharger": true,
        "edges": []
    },
    "25018": {
        "name": "Navolato",
        "state": "Sinaloa",
        "code": "25018",
        "lat": 24.723190631537612,
        "lon": -107.76482087819412,
        "hasSupercharger": false,
        "edges": []
    },
    "26013": {
        "name": "Ban\u00e1michi",
        "state": "Sonora",
        "code": "26013",
        "lat": 30.061011245489986,
        "lon": -110.27327000707037,
        "hasSupercharger": false,
        "edges": []
    },
    "26027": {
        "name": "Fronteras",
        "state": "Sonora",
        "code": "26027",
        "lat": 30.84851769724996,
        "lon": -109.64791036699869,
        "hasSupercharger": false,
        "edges": []
    },
    "26058": {
        "name": "Santa Ana",
        "state": "Sonora",
        "code": "26058",
        "lat": 30.451641200056862,
        "lon": -111.05898783407885,
        "hasSupercharger": true,
        "edges": []
    },
    "27007": {
        "name": "Emiliano Zapata",
        "state": "Tabasco",
        "code": "27007",
        "lat": 17.70512282447501,
        "lon": -91.67578209147798,
        "hasSupercharger": false,
        "edges": []
    },
    "28005": {
        "name": "Burgos",
        "state": "Tamaulipas",
        "code": "28005",
        "lat": 24.928579025318417,
        "lon": -98.84645997443482,
        "hasSupercharger": false,
        "edges": []
    },
    "28007": {
        "name": "Camargo",
        "state": "Tamaulipas",
        "code": "28007",
        "lat": 26.183648787371613,
        "lon": -98.85907506063825,
        "hasSupercharger": false,
        "edges": []
    },
    "28025": {
        "name": "Miguel Alem\u00e1n",
        "state": "Tamaulipas",
        "code": "28025",
        "lat": 26.238625001356407,
        "lon": -99.06736409721805,
        "hasSupercharger": false,
        "edges": []
    },
    "29005": {
        "name": "Apizaco",
        "state": "Tlaxcala",
        "code": "29005",
        "lat": 19.423518347591656,
        "lon": -98.12709890496618,
        "hasSupercharger": false,
        "edges": []
    },
    "29042": {
        "name": "Xicohtzinco",
        "state": "Tlaxcala",
        "code": "29042",
        "lat": 19.17055312800518,
        "lon": -98.2410495190256,
        "hasSupercharger": false,
        "edges": []
    },
    "29051": {
        "name": "San Jer\u00f3nimo Zacualpan",
        "state": "Tlaxcala",
        "code": "29051",
        "lat": 19.2481544805331,
        "lon": -98.26413441658873,
        "hasSupercharger": false,
        "edges": []
    },
    "30080": {
        "name": "Ixhuatl\u00e1n del Caf\u00e9",
        "state": "Veracruz de Ignacio de la Llave",
        "code": "30080",
        "lat": 19.03740068195637,
        "lon": -96.93083140254224,
        "hasSupercharger": false,
        "edges": []
    },
    "30098": {
        "name": "Magdalena",
        "state": "Veracruz de Ignacio de la Llave",
        "code": "30098",
        "lat": 18.7672077074491,
        "lon": -97.04618212580829,
        "hasSupercharger": false,
        "edges": []
    },
    "30124": {
        "name": "Papantla",
        "state": "Veracruz de Ignacio de la Llave",
        "code": "30124",
        "lat": 20.410901594008713,
        "lon": -97.28633248713207,
        "hasSupercharger": false,
        "edges": []
    },
    "30141": {
        "name": "San Andr\u00e9s Tuxtla",
        "state": "Veracruz de Ignacio de la Llave",
        "code": "30141",
        "lat": 18.467262743465138,
        "lon": -95.22219276504447,
        "hasSupercharger": false,
        "edges": []
    },
    "30186": {
        "name": "Tomatl\u00e1n",
        "state": "Veracruz de Ignacio de la Llave",
        "code": "30186",
        "lat": 19.021851092834574,
        "lon": -96.9968527892783,
        "hasSupercharger": false,
        "edges": []
    },
    "30194": {
        "name": "Villa Aldama",
        "state": "Veracruz de Ignacio de la Llave",
        "code": "30194",
        "lat": 19.65194308607204,
        "lon": -97.20292376093495,
        "hasSupercharger": false,
        "edges": []
    },
    "31021": {
        "name": "Chichimil\u00e1",
        "state": "Yucat\u00e1n",
        "code": "31021",
        "lat": 20.437091653021906,
        "lon": -88.18155066211705,
        "hasSupercharger": false,
        "edges": []
    },
    "31031": {
        "name": "Dzoncauich",
        "state": "Yucat\u00e1n",
        "code": "31031",
        "lat": 21.084217393814818,
        "lon": -88.8397910520288,
        "hasSupercharger": false,
        "edges": []
    },
    "31078": {
        "name": "Tekant\u00f3",
        "state": "Yucat\u00e1n",
        "code": "31078",
        "lat": 21.00615781949112,
        "lon": -89.10192411527984,
        "hasSupercharger": false,
        "edges": []
    },
    "31082": {
        "name": "Telchac Pueblo",
        "state": "Yucat\u00e1n",
        "code": "31082",
        "lat": 21.21748245717705,
        "lon": -89.25570629054205,
        "hasSupercharger": false,
        "edges": []
    },
    "31092": {
        "name": "Tixcacalcupul",
        "state": "Yucat\u00e1n",
        "code": "31092",
        "lat": 20.391673891995147,
        "lon": -88.32315196840695,
        "hasSupercharger": false,
        "edges": []
    },
    "31098": {
        "name": "Tzucacab",
        "state": "Yucat\u00e1n",
        "code": "31098",
        "lat": 19.938033165068028,
        "lon": -89.04678463213314,
        "hasSupercharger": false,
        "edges": []
    },
    "32035": {
        "name": "Noria de \u00c1ngeles",
        "state": "Zacatecas",
        "code": "32035",
        "lat": 22.39669975527301,
        "lon": -101.91555205927048,
        "hasSupercharger": false,
        "edges": []
    },
    "02003": {
        "name": "Tecate",
        "state": "Baja California",
        "code": "02003",
        "lat": 32.434764457754554,
        "lon": -116.29093725621144,
        "hasSupercharger": false,
        "edges": []
    },
    "05002": {
        "name": "Acu\u00f1a",
        "state": "Coahuila de Zaragoza",
        "code": "05002",
        "lat": 29.432601626925248,
        "lon": -102.01002643149046,
        "hasSupercharger": false,
        "edges": []
    },
    "05015": {
        "name": "Ju\u00e1rez",
        "state": "Coahuila de Zaragoza",
        "code": "05015",
        "lat": 27.65654627115762,
        "lon": -100.69337835347615,
        "hasSupercharger": false,
        "edges": []
    },
    "05029": {
        "name": "Sacramento",
        "state": "Coahuila de Zaragoza",
        "code": "05029",
        "lat": 26.939832032974635,
        "lon": -101.75649415944464,
        "hasSupercharger": false,
        "edges": []
    },
    "07002": {
        "name": "Acala",
        "state": "Chiapas",
        "code": "07002",
        "lat": 16.551604863450397,
        "lon": -92.81465488307506,
        "hasSupercharger": false,
        "edges": []
    },
    "07024": {
        "name": "Chanal",
        "state": "Chiapas",
        "code": "07024",
        "lat": 16.611532266997166,
        "lon": -92.2169707321375,
        "hasSupercharger": false,
        "edges": []
    },
    "07110": {
        "name": "San Lucas",
        "state": "Chiapas",
        "code": "07110",
        "lat": 16.62246967875211,
        "lon": -92.72377725572089,
        "hasSupercharger": false,
        "edges": []
    },
    "07113": {
        "name": "Aldama",
        "state": "Chiapas",
        "code": "07113",
        "lat": 16.92182687678132,
        "lon": -92.69017480349272,
        "hasSupercharger": false,
        "edges": []
    },
    "08034": {
        "name": "Ignacio Zaragoza",
        "state": "Chihuahua",
        "code": "08034",
        "lat": 29.722092881358044,
        "lon": -107.72354026897405,
        "hasSupercharger": false,
        "edges": []
    },
    "08045": {
        "name": "Meoqui",
        "state": "Chihuahua",
        "code": "08045",
        "lat": 28.3506190597905,
        "lon": -105.50145791437028,
        "hasSupercharger": false,
        "edges": []
    },
    "08063": {
        "name": "Tem\u00f3sachic",
        "state": "Chihuahua",
        "code": "08063",
        "lat": 28.714774011432723,
        "lon": -108.08482684951825,
        "hasSupercharger": false,
        "edges": []
    },
    "09006": {
        "name": "Iztacalco",
        "state": "Ciudad de M\u00e9xico",
        "code": "09006",
        "lat": 19.39691113651154,
        "lon": -99.09433651256917,
        "hasSupercharger": false,
        "edges": []
    },
    "09011": {
        "name": "Tl\u00e1huac",
        "state": "Ciudad de M\u00e9xico",
        "code": "09011",
        "lat": 19.276998976079277,
        "lon": -99.00281624486716,
        "hasSupercharger": false,
        "edges": []
    },
    "10021": {
        "name": "Pe\u00f1\u00f3n Blanco",
        "state": "Durango",
        "code": "10021",
        "lat": 24.785987587709247,
        "lon": -104.08232368708053,
        "hasSupercharger": false,
        "edges": []
    },
    "10035": {
        "name": "Tepehuanes",
        "state": "Durango",
        "code": "10035",
        "lat": 25.450244396919967,
        "lon": -106.06162698877165,
        "hasSupercharger": false,
        "edges": []
    },
    "11021": {
        "name": "Morole\u00f3n",
        "state": "Guanajuato",
        "code": "11021",
        "lat": 20.08431507649068,
        "lon": -101.24469087394867,
        "hasSupercharger": false,
        "edges": []
    },
    "12006": {
        "name": "Apaxtla",
        "state": "Guerrero",
        "code": "12006",
        "lat": 18.09123241478666,
        "lon": -99.98090059578556,
        "hasSupercharger": false,
        "edges": []
    },
    "12061": {
        "name": "Tixtla de Guerrero",
        "state": "Guerrero",
        "code": "12061",
        "lat": 17.599348450033755,
        "lon": -99.36746791553576,
        "hasSupercharger": false,
        "edges": []
    },
    "12072": {
        "name": "Zapotitl\u00e1n Tablas",
        "state": "Guerrero",
        "code": "12072",
        "lat": 17.32454623073334,
        "lon": -98.82951997333792,
        "hasSupercharger": false,
        "edges": []
    },
    "13004": {
        "name": "Agua Blanca de Iturbide",
        "state": "Hidalgo",
        "code": "13004",
        "lat": 20.361563360297808,
        "lon": -98.36938263934303,
        "hasSupercharger": false,
        "edges": []
    },
    "13026": {
        "name": "Huazalingo",
        "state": "Hidalgo",
        "code": "13026",
        "lat": 20.997496051199786,
        "lon": -98.48914504152775,
        "hasSupercharger": false,
        "edges": []
    },
    "13045": {
        "name": "Omitl\u00e1n de Ju\u00e1rez",
        "state": "Hidalgo",
        "code": "13045",
        "lat": 20.17373554035019,
        "lon": -98.62195442038556,
        "hasSupercharger": false,
        "edges": []
    },
    "13067": {
        "name": "Tezontepec de Aldama",
        "state": "Hidalgo",
        "code": "13067",
        "lat": 20.1788701963755,
        "lon": -99.29327930550333,
        "hasSupercharger": false,
        "edges": []
    },
    "13072": {
        "name": "Tlanalapa",
        "state": "Hidalgo",
        "code": "13072",
        "lat": 19.8351973737957,
        "lon": -98.5869350453347,
        "hasSupercharger": false,
        "edges": []
    },
    "13075": {
        "name": "Tolcayuca",
        "state": "Hidalgo",
        "code": "13075",
        "lat": 19.95495113276354,
        "lon": -98.92334651551188,
        "hasSupercharger": false,
        "edges": []
    },
    "13076": {
        "name": "Tula de Allende",
        "state": "Hidalgo",
        "code": "13076",
        "lat": 20.064127986712716,
        "lon": -99.37674256621483,
        "hasSupercharger": false,
        "edges": []
    },
    "14025": {
        "name": "Colotl\u00e1n",
        "state": "Jalisco",
        "code": "14025",
        "lat": 22.091708974563616,
        "lon": -103.28719893114055,
        "hasSupercharger": false,
        "edges": []
    },
    "14029": {
        "name": "Cuqu\u00edo",
        "state": "Jalisco",
        "code": "14029",
        "lat": 20.952400694711585,
        "lon": -103.02871919217974,
        "hasSupercharger": false,
        "edges": []
    },
    "14049": {
        "name": "Jilotl\u00e1n de los Dolores",
        "state": "Jalisco",
        "code": "14049",
        "lat": 19.329518097339083,
        "lon": -102.8810865209054,
        "hasSupercharger": false,
        "edges": []
    },
    "14065": {
        "name": "Pihuamo",
        "state": "Jalisco",
        "code": "14065",
        "lat": 19.146551444056517,
        "lon": -103.38186432027776,
        "hasSupercharger": false,
        "edges": []
    },
    "14069": {
        "name": "Quitupan",
        "state": "Jalisco",
        "code": "14069",
        "lat": 19.804537789640403,
        "lon": -102.86824300702507,
        "hasSupercharger": false,
        "edges": []
    },
    "14074": {
        "name": "San Juli\u00e1n",
        "state": "Jalisco",
        "code": "14074",
        "lat": 20.997658709833825,
        "lon": -102.16348012709092,
        "hasSupercharger": false,
        "edges": []
    },
    "15001": {
        "name": "Acambay de Ru\u00edz Casta\u00f1eda",
        "state": "M\u00e9xico",
        "code": "15001",
        "lat": 19.972941794501736,
        "lon": -99.87152751172226,
        "hasSupercharger": false,
        "edges": []
    },
    "15009": {
        "name": "Amecameca",
        "state": "M\u00e9xico",
        "code": "15009",
        "lat": 19.124887219034083,
        "lon": -98.7165594808179,
        "hasSupercharger": false,
        "edges": []
    },
    "15018": {
        "name": "Calimaya",
        "state": "M\u00e9xico",
        "code": "15018",
        "lat": 19.165535276917332,
        "lon": -99.6432506938833,
        "hasSupercharger": false,
        "edges": []
    },
    "15021": {
        "name": "Coatepec Harinas",
        "state": "M\u00e9xico",
        "code": "15021",
        "lat": 18.945534149780922,
        "lon": -99.79936625047112,
        "hasSupercharger": false,
        "edges": []
    },
    "15022": {
        "name": "Cocotitl\u00e1n",
        "state": "M\u00e9xico",
        "code": "15022",
        "lat": 19.226032383560195,
        "lon": -98.85889832099511,
        "hasSupercharger": false,
        "edges": []
    },
    "15089": {
        "name": "Tenango del Aire",
        "state": "M\u00e9xico",
        "code": "15089",
        "lat": 19.151633668493535,
        "lon": -98.87015158470845,
        "hasSupercharger": false,
        "edges": []
    },
    "15094": {
        "name": "Tepetlixpa",
        "state": "M\u00e9xico",
        "code": "15094",
        "lat": 19.00993285817356,
        "lon": -98.84129097135457,
        "hasSupercharger": false,
        "edges": []
    },
    "15119": {
        "name": "Zumpahuac\u00e1n",
        "state": "M\u00e9xico",
        "code": "15119",
        "lat": 18.800117930259102,
        "lon": -99.55409014113985,
        "hasSupercharger": false,
        "edges": []
    },
    "16001": {
        "name": "Acuitzio",
        "state": "Michoac\u00e1n de Ocampo",
        "code": "16001",
        "lat": 19.465832727287985,
        "lon": -101.34000704248024,
        "hasSupercharger": false,
        "edges": []
    },
    "16010": {
        "name": "Arteaga",
        "state": "Michoac\u00e1n de Ocampo",
        "code": "16010",
        "lat": 18.364069065654697,
        "lon": -102.27068550306444,
        "hasSupercharger": false,
        "edges": []
    },
    "16063": {
        "name": "Panind\u00edcuaro",
        "state": "Michoac\u00e1n de Ocampo",
        "code": "16063",
        "lat": 20.00174261520438,
        "lon": -101.78165311904209,
        "hasSupercharger": false,
        "edges": []
    },
    "16109": {
        "name": "Zin\u00e1paro",
        "state": "Michoac\u00e1n de Ocampo",
        "code": "16109",
        "lat": 20.182488027728013,
        "lon": -102.0115428711261,
        "hasSupercharger": false,
        "edges": []
    },
    "17023": {
        "name": "Tlalnepantla",
        "state": "Morelos",
        "code": "17023",
        "lat": 19.03870498810429,
        "lon": -98.99024223802203,
        "hasSupercharger": false,
        "edges": []
    },
    "19042": {
        "name": "Los Ramones",
        "state": "Nuevo Le\u00f3n",
        "code": "19042",
        "lat": 25.653311374535992,
        "lon": -99.5876665323346,
        "hasSupercharger": false,
        "edges": []
    },
    "20001": {
        "name": "Abejones",
        "state": "Oaxaca",
        "code": "20001",
        "lat": 17.49014981105827,
        "lon": -96.63383939927652,
        "hasSupercharger": false,
        "edges": []
    },
    "20030": {
        "name": "El Espinal",
        "state": "Oaxaca",
        "code": "20030",
        "lat": 16.467171975836074,
        "lon": -95.03953654004168,
        "hasSupercharger": false,
        "edges": []
    },
    "20032": {
        "name": "Fresnillo de Trujano",
        "state": "Oaxaca",
        "code": "20032",
        "lat": 17.92986912906609,
        "lon": -98.12916524627667,
        "hasSupercharger": false,
        "edges": []
    },
    "20057": {
        "name": "Mat\u00edas Romero Avenda\u00f1o",
        "state": "Oaxaca",
        "code": "20057",
        "lat": 17.155603309476817,
        "lon": -94.9909683121692,
        "hasSupercharger": false,
        "edges": []
    },
    "20096": {
        "name": "San Andr\u00e9s Sinaxtla",
        "state": "Oaxaca",
        "code": "20096",
        "lat": 17.484687674753907,
        "lon": -97.29610974043442,
        "hasSupercharger": false,
        "edges": []
    },
    "20122": {
        "name": "San Bartolo Yautepec",
        "state": "Oaxaca",
        "code": "20122",
        "lat": 16.425506814024658,
        "lon": -95.92802915271992,
        "hasSupercharger": false,
        "edges": []
    },
    "20174": {
        "name": "\u00c1nimas Trujano",
        "state": "Oaxaca",
        "code": "20174",
        "lat": 16.987327138940657,
        "lon": -96.71620064764141,
        "hasSupercharger": false,
        "edges": []
    },
    "20240": {
        "name": "San Mart\u00edn Itunyoso",
        "state": "Oaxaca",
        "code": "20240",
        "lat": 17.217363622322104,
        "lon": -97.85578019504986,
        "hasSupercharger": false,
        "edges": []
    },
    "20271": {
        "name": "San Miguel Mixtepec",
        "state": "Oaxaca",
        "code": "20271",
        "lat": 16.757549414782115,
        "lon": -96.94786845043095,
        "hasSupercharger": false,
        "edges": []
    },
    "20281": {
        "name": "San Miguel Tecomatl\u00e1n",
        "state": "Oaxaca",
        "code": "20281",
        "lat": 17.378857649182674,
        "lon": -97.29105661048904,
        "hasSupercharger": false,
        "edges": []
    },
    "20297": {
        "name": "San Pablo Tijaltepec",
        "state": "Oaxaca",
        "code": "20297",
        "lat": 17.007545701422575,
        "lon": -97.47128594674939,
        "hasSupercharger": false,
        "edges": []
    },
    "20317": {
        "name": "San Pedro M\u00e1rtir Yucuxaco",
        "state": "Oaxaca",
        "code": "20317",
        "lat": 17.450092531355562,
        "lon": -97.6438086593249,
        "hasSupercharger": false,
        "edges": []
    },
    "20321": {
        "name": "San Pedro Nopala",
        "state": "Oaxaca",
        "code": "20321",
        "lat": 17.81050066259088,
        "lon": -97.57686333849038,
        "hasSupercharger": false,
        "edges": []
    },
    "20329": {
        "name": "San Pedro Teozacoalco",
        "state": "Oaxaca",
        "code": "20329",
        "lat": 16.995706460601102,
        "lon": -97.27480512554888,
        "hasSupercharger": false,
        "edges": []
    },
    "20346": {
        "name": "San Sebasti\u00e1n Nicananduta",
        "state": "Oaxaca",
        "code": "20346",
        "lat": 17.519958092061476,
        "lon": -97.67438563806897,
        "hasSupercharger": false,
        "edges": []
    },
    "20362": {
        "name": "Santa Catarina Cuixtla",
        "state": "Oaxaca",
        "code": "20362",
        "lat": 16.294917792034138,
        "lon": -96.64821044135469,
        "hasSupercharger": false,
        "edges": []
    },
    "20516": {
        "name": "Santo Domingo Teojomulco",
        "state": "Oaxaca",
        "code": "20516",
        "lat": 16.57573037713023,
        "lon": -97.27722381513303,
        "hasSupercharger": false,
        "edges": []
    },
    "20533": {
        "name": "Santo Tom\u00e1s Tamazulapan",
        "state": "Oaxaca",
        "code": "20533",
        "lat": 16.241828646712595,
        "lon": -96.58043836430403,
        "hasSupercharger": false,
        "edges": []
    },
    "20545": {
        "name": "Teotitl\u00e1n de Flores Mag\u00f3n",
        "state": "Oaxaca",
        "code": "20545",
        "lat": 18.1073768253261,
        "lon": -97.11221410292362,
        "hasSupercharger": false,
        "edges": []
    },
    "21030": {
        "name": "Coatepec",
        "state": "Puebla",
        "code": "21030",
        "lat": 20.055148508659506,
        "lon": -97.73105333844344,
        "hasSupercharger": false,
        "edges": []
    },
    "21034": {
        "name": "Coronango",
        "state": "Puebla",
        "code": "21034",
        "lat": 19.13523341485714,
        "lon": -98.29174791083051,
        "hasSupercharger": true,
        "edges": []
    },
    "21058": {
        "name": "Chilchotla",
        "state": "Puebla",
        "code": "21058",
        "lat": 19.258274571616834,
        "lon": -97.21356419903603,
        "hasSupercharger": false,
        "edges": []
    },
    "21067": {
        "name": "Guadalupe Victoria",
        "state": "Puebla",
        "code": "21067",
        "lat": 19.31641601428413,
        "lon": -97.38013206365228,
        "hasSupercharger": false,
        "edges": []
    },
    "21077": {
        "name": "Hueytlalpan",
        "state": "Puebla",
        "code": "21077",
        "lat": 20.04314788859475,
        "lon": -97.68416027501604,
        "hasSupercharger": false,
        "edges": []
    },
    "21214": {
        "name": "Zinacatepec",
        "state": "Puebla",
        "code": "21214",
        "lat": 18.3274392916968,
        "lon": -97.2224757456284,
        "hasSupercharger": false,
        "edges": []
    },
    "24011": {
        "name": "Ciudad Fern\u00e1ndez",
        "state": "San Luis Potos\u00ed",
        "code": "24011",
        "lat": 22.01581235786504,
        "lon": -100.21159450239753,
        "hasSupercharger": false,
        "edges": []
    },
    "24038": {
        "name": "Tampac\u00e1n",
        "state": "San Luis Potos\u00ed",
        "code": "24038",
        "lat": 21.417651733371816,
        "lon": -98.74574415779163,
        "hasSupercharger": false,
        "edges": []
    },
    "24044": {
        "name": "Vanegas",
        "state": "San Luis Potos\u00ed",
        "code": "24044",
        "lat": 24.11052312527786,
        "lon": -100.91405895297969,
        "hasSupercharger": false,
        "edges": []
    },
    "26041": {
        "name": "Nacozari de Garc\u00eda",
        "state": "Sonora",
        "code": "26041",
        "lat": 30.48674040533843,
        "lon": -109.47991571971633,
        "hasSupercharger": false,
        "edges": []
    },
    "26064": {
        "name": "Trincheras",
        "state": "Sonora",
        "code": "26064",
        "lat": 30.312062289604913,
        "lon": -111.58157503623855,
        "hasSupercharger": false,
        "edges": []
    },
    "27005": {
        "name": "Comalcalco",
        "state": "Tabasco",
        "code": "27005",
        "lat": 18.286926524588914,
        "lon": -93.33669448451576,
        "hasSupercharger": false,
        "edges": []
    },
    "29016": {
        "name": "Ixtenco",
        "state": "Tlaxcala",
        "code": "29016",
        "lat": 19.257580422345498,
        "lon": -97.91135071912514,
        "hasSupercharger": false,
        "edges": []
    },
    "29038": {
        "name": "Tzompantepec",
        "state": "Tlaxcala",
        "code": "29038",
        "lat": 19.38071816418709,
        "lon": -98.08522769337758,
        "hasSupercharger": false,
        "edges": []
    },
    "29039": {
        "name": "Xaloztoc",
        "state": "Tlaxcala",
        "code": "29039",
        "lat": 19.41617210777975,
        "lon": -98.02915257796187,
        "hasSupercharger": false,
        "edges": []
    },
    "30019": {
        "name": "Astacinga",
        "state": "Veracruz de Ignacio de la Llave",
        "code": "30019",
        "lat": 18.56175917000561,
        "lon": -97.10033833310747,
        "hasSupercharger": false,
        "edges": []
    },
    "30026": {
        "name": "Banderilla",
        "state": "Veracruz de Ignacio de la Llave",
        "code": "30026",
        "lat": 19.58677621309237,
        "lon": -96.9429609799733,
        "hasSupercharger": false,
        "edges": []
    },
    "30031": {
        "name": "Carrillo Puerto",
        "state": "Veracruz de Ignacio de la Llave",
        "code": "30031",
        "lat": 18.816622540891114,
        "lon": -96.581926239973,
        "hasSupercharger": false,
        "edges": []
    },
    "30112": {
        "name": "Naolinco",
        "state": "Veracruz de Ignacio de la Llave",
        "code": "30112",
        "lat": 19.633276359404494,
        "lon": -96.84098581689469,
        "hasSupercharger": false,
        "edges": []
    },
    "30158": {
        "name": "Tecolutla",
        "state": "Veracruz de Ignacio de la Llave",
        "code": "30158",
        "lat": 20.385578956212626,
        "lon": -97.02528588108352,
        "hasSupercharger": false,
        "edges": []
    },
    "30200": {
        "name": "Zentla",
        "state": "Veracruz de Ignacio de la Llave",
        "code": "30200",
        "lat": 19.067161149510653,
        "lon": -96.73380897165816,
        "hasSupercharger": false,
        "edges": []
    },
    "31070": {
        "name": "Sucil\u00e1",
        "state": "Yucat\u00e1n",
        "code": "31070",
        "lat": 21.209656508109628,
        "lon": -88.37183614970158,
        "hasSupercharger": false,
        "edges": []
    },
    "31075": {
        "name": "Teabo",
        "state": "Yucat\u00e1n",
        "code": "31075",
        "lat": 20.377315278481056,
        "lon": -89.22147207325338,
        "hasSupercharger": false,
        "edges": []
    },
    "31096": {
        "name": "Tizim\u00edn",
        "state": "Yucat\u00e1n",
        "code": "31096",
        "lat": 21.2571101088718,
        "lon": -87.84794225875551,
        "hasSupercharger": false,
        "edges": []
    },
    "32016": {
        "name": "General P\u00e1nfilo Natera",
        "state": "Zacatecas",
        "code": "32016",
        "lat": 22.690156005135343,
        "lon": -102.11998472146297,
        "hasSupercharger": false,
        "edges": []
    },
    "32021": {
        "name": "Jim\u00e9nez del Teul",
        "state": "Zacatecas",
        "code": "32021",
        "lat": 23.175208541778765,
        "lon": -103.95332638034294,
        "hasSupercharger": false,
        "edges": []
    },
    "01005": {
        "name": "Jes\u00fas Mar\u00eda",
        "state": "Aguascalientes",
        "code": "01005",
        "lat": 21.932119160042493,
        "lon": -102.44564622304819,
        "hasSupercharger": false,
        "edges": []
    },
    "07029": {
        "name": "Chicoas\u00e9n",
        "state": "Chiapas",
        "code": "07029",
        "lat": 16.995331652527017,
        "lon": -93.11151755513346,
        "hasSupercharger": false,
        "edges": []
    },
    "07083": {
        "name": "Socoltenango",
        "state": "Chiapas",
        "code": "07083",
        "lat": 16.10642730846788,
        "lon": -92.37594436696509,
        "hasSupercharger": false,
        "edges": []
    },
    "07103": {
        "name": "Tuzant\u00e1n",
        "state": "Chiapas",
        "code": "07103",
        "lat": 15.140445596854326,
        "lon": -92.41156273681047,
        "hasSupercharger": false,
        "edges": []
    },
    "07115": {
        "name": "Maravilla Tenejapa",
        "state": "Chiapas",
        "code": "07115",
        "lat": 16.19919390822116,
        "lon": -91.24859465500667,
        "hasSupercharger": false,
        "edges": []
    },
    "08013": {
        "name": "Casas Grandes",
        "state": "Chihuahua",
        "code": "08013",
        "lat": 30.193920993580484,
        "lon": -108.20229399387934,
        "hasSupercharger": false,
        "edges": []
    },
    "08025": {
        "name": "G\u00f3mez Far\u00edas",
        "state": "Chihuahua",
        "code": "08025",
        "lat": 29.336563787170288,
        "lon": -107.73731612116087,
        "hasSupercharger": false,
        "edges": []
    },
    "09008": {
        "name": "La Magdalena Contreras",
        "state": "Ciudad de M\u00e9xico",
        "code": "09008",
        "lat": 19.268974789890645,
        "lon": -99.26841527369541,
        "hasSupercharger": false,
        "edges": []
    },
    "10026": {
        "name": "San Dimas",
        "state": "Durango",
        "code": "10026",
        "lat": 24.230372521763577,
        "lon": -105.74245005683296,
        "hasSupercharger": false,
        "edges": []
    },
    "10028": {
        "name": "San Juan del R\u00edo",
        "state": "Durango",
        "code": "10028",
        "lat": 24.807353569879385,
        "lon": -104.47040127468095,
        "hasSupercharger": false,
        "edges": []
    },
    "11004": {
        "name": "Apaseo el Alto",
        "state": "Guanajuato",
        "code": "11004",
        "lat": 20.421840149101275,
        "lon": -100.57351733506353,
        "hasSupercharger": false,
        "edges": []
    },
    "11039": {
        "name": "Tarimoro",
        "state": "Guanajuato",
        "code": "11039",
        "lat": 20.296737643605947,
        "lon": -100.74149859500557,
        "hasSupercharger": false,
        "edges": []
    },
    "12073": {
        "name": "Zir\u00e1ndaro",
        "state": "Guerrero",
        "code": "12073",
        "lat": 18.344926904635127,
        "lon": -101.21822838386079,
        "hasSupercharger": false,
        "edges": []
    },
    "12076": {
        "name": "Acatepec",
        "state": "Guerrero",
        "code": "12076",
        "lat": 17.174815460022856,
        "lon": -98.97603226041352,
        "hasSupercharger": false,
        "edges": []
    },
    "12079": {
        "name": "Jos\u00e9 Joaqu\u00edn de Herrera",
        "state": "Guerrero",
        "code": "12079",
        "lat": 17.442637301506156,
        "lon": -98.99593904019099,
        "hasSupercharger": false,
        "edges": []
    },
    "13034": {
        "name": "Lolotla",
        "state": "Hidalgo",
        "code": "13034",
        "lat": 20.962163430834497,
        "lon": -98.72331321851682,
        "hasSupercharger": false,
        "edges": []
    },
    "14022": {
        "name": "Cihuatl\u00e1n",
        "state": "Jalisco",
        "code": "14022",
        "lat": 19.277353243059714,
        "lon": -104.61500927855332,
        "hasSupercharger": false,
        "edges": []
    },
    "14034": {
        "name": "Ejutla",
        "state": "Jalisco",
        "code": "14034",
        "lat": 19.912414116732684,
        "lon": -104.08162109862023,
        "hasSupercharger": false,
        "edges": []
    },
    "14068": {
        "name": "Villa Purificaci\u00f3n",
        "state": "Jalisco",
        "code": "14068",
        "lat": 19.807188522228678,
        "lon": -104.72284382949081,
        "hasSupercharger": false,
        "edges": []
    },
    "14077": {
        "name": "San Mart\u00edn Hidalgo",
        "state": "Jalisco",
        "code": "14077",
        "lat": 20.44992625900271,
        "lon": -103.90513277798513,
        "hasSupercharger": false,
        "edges": []
    },
    "15002": {
        "name": "Acolman",
        "state": "M\u00e9xico",
        "code": "15002",
        "lat": 19.63377607292872,
        "lon": -98.91986619669598,
        "hasSupercharger": false,
        "edges": []
    },
    "15033": {
        "name": "Ecatepec de Morelos",
        "state": "M\u00e9xico",
        "code": "15033",
        "lat": 19.57278143966929,
        "lon": -99.04321430426054,
        "hasSupercharger": false,
        "edges": []
    },
    "15065": {
        "name": "Otumba",
        "state": "M\u00e9xico",
        "code": "15065",
        "lat": 19.65602163005772,
        "lon": -98.73839103120578,
        "hasSupercharger": false,
        "edges": []
    },
    "15085": {
        "name": "Temascalcingo",
        "state": "M\u00e9xico",
        "code": "15085",
        "lat": 19.921264606018728,
        "lon": -100.03699945473377,
        "hasSupercharger": true,
        "edges": []
    },
    "15086": {
        "name": "Temascaltepec",
        "state": "M\u00e9xico",
        "code": "15086",
        "lat": 19.081360661045853,
        "lon": -99.99658418839381,
        "hasSupercharger": false,
        "edges": []
    },
    "15105": {
        "name": "Tlatlaya",
        "state": "M\u00e9xico",
        "code": "15105",
        "lat": 18.544480708765633,
        "lon": -100.25708448145453,
        "hasSupercharger": false,
        "edges": []
    },
    "15107": {
        "name": "Tonatico",
        "state": "M\u00e9xico",
        "code": "15107",
        "lat": 18.780904492473557,
        "lon": -99.63756091046358,
        "hasSupercharger": false,
        "edges": []
    },
    "15112": {
        "name": "Villa del Carb\u00f3n",
        "state": "M\u00e9xico",
        "code": "15112",
        "lat": 19.72106521341723,
        "lon": -99.47839030174384,
        "hasSupercharger": false,
        "edges": []
    },
    "16056": {
        "name": "Nahuatzen",
        "state": "Michoac\u00e1n de Ocampo",
        "code": "16056",
        "lat": 19.645180302336836,
        "lon": -101.87954969711849,
        "hasSupercharger": false,
        "edges": []
    },
    "16073": {
        "name": "Quiroga",
        "state": "Michoac\u00e1n de Ocampo",
        "code": "16073",
        "lat": 19.695178217696316,
        "lon": -101.53866814779575,
        "hasSupercharger": false,
        "edges": []
    },
    "16091": {
        "name": "Ting\u00fcind\u00edn",
        "state": "Michoac\u00e1n de Ocampo",
        "code": "16091",
        "lat": 19.786738547228474,
        "lon": -102.50042364483416,
        "hasSupercharger": false,
        "edges": []
    },
    "16103": {
        "name": "Venustiano Carranza",
        "state": "Michoac\u00e1n de Ocampo",
        "code": "16103",
        "lat": 20.14306118976586,
        "lon": -102.66620124242748,
        "hasSupercharger": false,
        "edges": []
    },
    "18012": {
        "name": "San Blas",
        "state": "Nayarit",
        "code": "18012",
        "lat": 21.567343604973328,
        "lon": -105.48692183636831,
        "hasSupercharger": false,
        "edges": []
    },
    "19009": {
        "name": "Cadereyta Jim\u00e9nez",
        "state": "Nuevo Le\u00f3n",
        "code": "19009",
        "lat": 25.524589140246448,
        "lon": -99.91418616718602,
        "hasSupercharger": false,
        "edges": []
    },
    "20005": {
        "name": "Asunci\u00f3n Ixtaltepec",
        "state": "Oaxaca",
        "code": "20005",
        "lat": 16.66198023315143,
        "lon": -94.95645263432246,
        "hasSupercharger": false,
        "edges": []
    },
    "20014": {
        "name": "Ciudad Ixtepec",
        "state": "Oaxaca",
        "code": "20014",
        "lat": 16.623387750604724,
        "lon": -95.0893351198357,
        "hasSupercharger": false,
        "edges": []
    },
    "20021": {
        "name": "Cosolapa",
        "state": "Oaxaca",
        "code": "20021",
        "lat": 18.579870030822338,
        "lon": -96.66188047110495,
        "hasSupercharger": false,
        "edges": []
    },
    "20077": {
        "name": "Reyes Etla",
        "state": "Oaxaca",
        "code": "20077",
        "lat": 17.209939588315603,
        "lon": -96.81907072443835,
        "hasSupercharger": false,
        "edges": []
    },
    "20080": {
        "name": "San Agust\u00edn Amatengo",
        "state": "Oaxaca",
        "code": "20080",
        "lat": 16.513789588774937,
        "lon": -96.81380129385332,
        "hasSupercharger": false,
        "edges": []
    },
    "20085": {
        "name": "San Agust\u00edn Loxicha",
        "state": "Oaxaca",
        "code": "20085",
        "lat": 15.976174125343464,
        "lon": -96.62081985259945,
        "hasSupercharger": false,
        "edges": []
    },
    "20136": {
        "name": "San Felipe Usila",
        "state": "Oaxaca",
        "code": "20136",
        "lat": 17.820291680524914,
        "lon": -96.50709590981276,
        "hasSupercharger": false,
        "edges": []
    },
    "20143": {
        "name": "San Francisco Ixhuat\u00e1n",
        "state": "Oaxaca",
        "code": "20143",
        "lat": 16.352693438881445,
        "lon": -94.51307853882037,
        "hasSupercharger": false,
        "edges": []
    },
    "20178": {
        "name": "San Juan Bautista Guelache",
        "state": "Oaxaca",
        "code": "20178",
        "lat": 17.237987507979916,
        "lon": -96.75915592978275,
        "hasSupercharger": false,
        "edges": []
    },
    "20183": {
        "name": "San Juan Bautista Tlachichilco",
        "state": "Oaxaca",
        "code": "20183",
        "lat": 17.590708652455255,
        "lon": -98.3222252849555,
        "hasSupercharger": false,
        "edges": []
    },
    "20218": {
        "name": "San Juan Teita",
        "state": "Oaxaca",
        "code": "20218",
        "lat": 17.077413039430127,
        "lon": -97.43001775002303,
        "hasSupercharger": false,
        "edges": []
    },
    "20244": {
        "name": "San Mart\u00edn Toxpalan",
        "state": "Oaxaca",
        "code": "20244",
        "lat": 18.107397111533544,
        "lon": -97.03090514406202,
        "hasSupercharger": false,
        "edges": []
    },
    "20277": {
        "name": "Villa Sola de Vega",
        "state": "Oaxaca",
        "code": "20277",
        "lat": 16.513210729030874,
        "lon": -97.05817764704297,
        "hasSupercharger": false,
        "edges": []
    },
    "20336": {
        "name": "San Pedro Y\u00f3lox",
        "state": "Oaxaca",
        "code": "20336",
        "lat": 17.63338607418953,
        "lon": -96.47948166245,
        "hasSupercharger": false,
        "edges": []
    },
    "20353": {
        "name": "Santa Ana",
        "state": "Oaxaca",
        "code": "20353",
        "lat": 16.334270958775058,
        "lon": -96.73028375849562,
        "hasSupercharger": false,
        "edges": []
    },
    "20366": {
        "name": "Santa Catarina Loxicha",
        "state": "Oaxaca",
        "code": "20366",
        "lat": 16.070957119097873,
        "lon": -96.71877083072965,
        "hasSupercharger": false,
        "edges": []
    },
    "20413": {
        "name": "Santa Mar\u00eda Huatulco",
        "state": "Oaxaca",
        "code": "20413",
        "lat": 15.796116631531696,
        "lon": -96.22320314346452,
        "hasSupercharger": false,
        "edges": []
    },
    "20415": {
        "name": "Santa Mar\u00eda Ipalapa",
        "state": "Oaxaca",
        "code": "20415",
        "lat": 16.614883761947972,
        "lon": -97.99832110305681,
        "hasSupercharger": false,
        "edges": []
    },
    "20490": {
        "name": "Santiago Texcalcingo",
        "state": "Oaxaca",
        "code": "20490",
        "lat": 18.21512627236231,
        "lon": -96.97875428307646,
        "hasSupercharger": false,
        "edges": []
    },
    "20492": {
        "name": "Santiago Tilantongo",
        "state": "Oaxaca",
        "code": "20492",
        "lat": 17.21022195784667,
        "lon": -97.35343082881845,
        "hasSupercharger": false,
        "edges": []
    },
    "20506": {
        "name": "Santo Domingo Albarradas",
        "state": "Oaxaca",
        "code": "20506",
        "lat": 17.071218945490408,
        "lon": -96.21035709045744,
        "hasSupercharger": false,
        "edges": []
    },
    "20510": {
        "name": "Santo Domingo Ixcatl\u00e1n",
        "state": "Oaxaca",
        "code": "20510",
        "lat": 16.90908048435119,
        "lon": -97.5239498496161,
        "hasSupercharger": false,
        "edges": []
    },
    "20551": {
        "name": "Tlacolula de Matamoros",
        "state": "Oaxaca",
        "code": "20551",
        "lat": 16.873581771565725,
        "lon": -96.35934295320847,
        "hasSupercharger": false,
        "edges": []
    },
    "20568": {
        "name": "Zapotitl\u00e1n Palmas",
        "state": "Oaxaca",
        "code": "20568",
        "lat": 17.882510560762196,
        "lon": -97.83488770161651,
        "hasSupercharger": false,
        "edges": []
    },
    "21014": {
        "name": "Amixtl\u00e1n",
        "state": "Puebla",
        "code": "21014",
        "lat": 20.055823043054097,
        "lon": -97.80068327285481,
        "hasSupercharger": false,
        "edges": []
    },
    "21053": {
        "name": "Chignahuapan",
        "state": "Puebla",
        "code": "21053",
        "lat": 19.82102706098345,
        "lon": -98.13474514037817,
        "hasSupercharger": false,
        "edges": []
    },
    "21096": {
        "name": "Mazapiltepec de Ju\u00e1rez",
        "state": "Puebla",
        "code": "21096",
        "lat": 19.151122800424112,
        "lon": -97.6920036926427,
        "hasSupercharger": false,
        "edges": []
    },
    "21103": {
        "name": "Nicol\u00e1s Bravo",
        "state": "Puebla",
        "code": "21103",
        "lat": 18.627520235755068,
        "lon": -97.33753307061002,
        "hasSupercharger": false,
        "edges": []
    },
    "21110": {
        "name": "Palmar de Bravo",
        "state": "Puebla",
        "code": "21110",
        "lat": 18.835001132594858,
        "lon": -97.53557871372189,
        "hasSupercharger": false,
        "edges": []
    },
    "21143": {
        "name": "San Salvador el Verde",
        "state": "Puebla",
        "code": "21143",
        "lat": 19.24458357833423,
        "lon": -98.5613416413823,
        "hasSupercharger": false,
        "edges": []
    },
    "21170": {
        "name": "Tepeyahualco",
        "state": "Puebla",
        "code": "21170",
        "lat": 19.47960692505712,
        "lon": -97.46327239816438,
        "hasSupercharger": false,
        "edges": []
    },
    "21176": {
        "name": "Tilapa",
        "state": "Puebla",
        "code": "21176",
        "lat": 18.614302835023434,
        "lon": -98.5419904641533,
        "hasSupercharger": false,
        "edges": []
    },
    "21194": {
        "name": "Venustiano Carranza",
        "state": "Puebla",
        "code": "21194",
        "lat": 20.50835390857353,
        "lon": -97.6872488995075,
        "hasSupercharger": false,
        "edges": []
    },
    "21195": {
        "name": "Vicente Guerrero",
        "state": "Puebla",
        "code": "21195",
        "lat": 18.530350198299537,
        "lon": -97.18206055241183,
        "hasSupercharger": false,
        "edges": []
    },
    "21197": {
        "name": "Xicotepec",
        "state": "Puebla",
        "code": "21197",
        "lat": 20.32661797742678,
        "lon": -97.90262635329981,
        "hasSupercharger": false,
        "edges": []
    },
    "21215": {
        "name": "Zongozotla",
        "state": "Puebla",
        "code": "21215",
        "lat": 19.976542695025085,
        "lon": -97.76052528831754,
        "hasSupercharger": false,
        "edges": []
    },
    "23001": {
        "name": "Cozumel",
        "state": "Quintana Roo",
        "code": "23001",
        "lat": 20.445480947491458,
        "lon": -86.90845807457774,
        "hasSupercharger": false,
        "edges": []
    },
    "24022": {
        "name": "Moctezuma",
        "state": "San Luis Potos\u00ed",
        "code": "24022",
        "lat": 22.733349593054466,
        "lon": -101.17107315384719,
        "hasSupercharger": false,
        "edges": []
    },
    "24051": {
        "name": "Villa Hidalgo",
        "state": "San Luis Potos\u00ed",
        "code": "24051",
        "lat": 22.64076647188289,
        "lon": -100.67340743776991,
        "hasSupercharger": true,
        "edges": []
    },
    "26035": {
        "name": "Imuris",
        "state": "Sonora",
        "code": "26035",
        "lat": 30.847341094032313,
        "lon": -110.7457828089527,
        "hasSupercharger": false,
        "edges": []
    },
    "26039": {
        "name": "Naco",
        "state": "Sonora",
        "code": "26039",
        "lat": 31.22949855559951,
        "lon": -109.95720838486535,
        "hasSupercharger": false,
        "edges": []
    },
    "26043": {
        "name": "Nogales",
        "state": "Sonora",
        "code": "26043",
        "lat": 31.19883396868192,
        "lon": -111.002443931317,
        "hasSupercharger": false,
        "edges": []
    },
    "26053": {
        "name": "San Felipe de Jes\u00fas",
        "state": "Sonora",
        "code": "26053",
        "lat": 29.876432873998997,
        "lon": -110.32936320118762,
        "hasSupercharger": false,
        "edges": []
    },
    "26059": {
        "name": "Santa Cruz",
        "state": "Sonora",
        "code": "26059",
        "lat": 31.192030173951306,
        "lon": -110.54881753800217,
        "hasSupercharger": false,
        "edges": []
    },
    "26071": {
        "name": "Benito Ju\u00e1rez",
        "state": "Sonora",
        "code": "26071",
        "lat": 27.106402812105376,
        "lon": -109.85144468928394,
        "hasSupercharger": false,
        "edges": []
    },
    "29041": {
        "name": "Papalotla de Xicoht\u00e9ncatl",
        "state": "Tlaxcala",
        "code": "29041",
        "lat": 19.172489651925595,
        "lon": -98.19643943778509,
        "hasSupercharger": false,
        "edges": []
    },
    "30006": {
        "name": "Acultzingo",
        "state": "Veracruz de Ignacio de la Llave",
        "code": "30006",
        "lat": 18.716145078148763,
        "lon": -97.27642881085521,
        "hasSupercharger": false,
        "edges": []
    },
    "30028": {
        "name": "Boca del R\u00edo",
        "state": "Veracruz de Ignacio de la Llave",
        "code": "30028",
        "lat": 19.11744811405561,
        "lon": -96.12098365142663,
        "hasSupercharger": false,
        "edges": []
    },
    "30033": {
        "name": "Cazones de Herrera",
        "state": "Veracruz de Ignacio de la Llave",
        "code": "30033",
        "lat": 20.714446795679905,
        "lon": -97.28548368123958,
        "hasSupercharger": false,
        "edges": []
    },
    "30069": {
        "name": "Guti\u00e9rrez Zamora",
        "state": "Veracruz de Ignacio de la Llave",
        "code": "30069",
        "lat": 20.446369378955314,
        "lon": -97.10959395536118,
        "hasSupercharger": false,
        "edges": []
    },
    "30075": {
        "name": "Ignacio de la Llave",
        "state": "Veracruz de Ignacio de la Llave",
        "code": "30075",
        "lat": 18.665459434001267,
        "lon": -95.96350538388593,
        "hasSupercharger": false,
        "edges": []
    },
    "30077": {
        "name": "Isla",
        "state": "Veracruz de Ignacio de la Llave",
        "code": "30077",
        "lat": 18.08215216752733,
        "lon": -95.55839605508673,
        "hasSupercharger": false,
        "edges": []
    },
    "30086": {
        "name": "Jalacingo",
        "state": "Veracruz de Ignacio de la Llave",
        "code": "30086",
        "lat": 19.764717855680193,
        "lon": -97.29189178135658,
        "hasSupercharger": false,
        "edges": []
    },
    "30106": {
        "name": "Miahuatl\u00e1n",
        "state": "Veracruz de Ignacio de la Llave",
        "code": "30106",
        "lat": 19.724026964132744,
        "lon": -96.88145237737645,
        "hasSupercharger": false,
        "edges": []
    },
    "30113": {
        "name": "Naranjal",
        "state": "Veracruz de Ignacio de la Llave",
        "code": "30113",
        "lat": 18.794896749052224,
        "lon": -96.95705148951275,
        "hasSupercharger": false,
        "edges": []
    },
    "30121": {
        "name": "Ozuluama de Mascare\u00f1as",
        "state": "Veracruz de Ignacio de la Llave",
        "code": "30121",
        "lat": 21.721255939007897,
        "lon": -97.84760844125303,
        "hasSupercharger": false,
        "edges": []
    },
    "30212": {
        "name": "Santiago Sochiapan",
        "state": "Veracruz de Ignacio de la Llave",
        "code": "30212",
        "lat": 17.625098563225258,
        "lon": -95.66494319202391,
        "hasSupercharger": false,
        "edges": []
    },
    "31004": {
        "name": "Baca",
        "state": "Yucat\u00e1n",
        "code": "31004",
        "lat": 21.13445838011816,
        "lon": -89.39940851554289,
        "hasSupercharger": false,
        "edges": []
    },
    "31020": {
        "name": "Chicxulub Pueblo",
        "state": "Yucat\u00e1n",
        "code": "31020",
        "lat": 21.150730857468474,
        "lon": -89.52674166849337,
        "hasSupercharger": false,
        "edges": []
    },
    "31030": {
        "name": "Dzit\u00e1s",
        "state": "Yucat\u00e1n",
        "code": "31030",
        "lat": 20.835471365367937,
        "lon": -88.5336017473011,
        "hasSupercharger": false,
        "edges": []
    },
    "31085": {
        "name": "Temoz\u00f3n",
        "state": "Yucat\u00e1n",
        "code": "31085",
        "lat": 20.898588326906527,
        "lon": -88.06446686474828,
        "hasSupercharger": false,
        "edges": []
    },
    "31094": {
        "name": "Tixmehuac",
        "state": "Yucat\u00e1n",
        "code": "31094",
        "lat": 20.24682338910209,
        "lon": -89.08694894577104,
        "hasSupercharger": false,
        "edges": []
    },
    "31100": {
        "name": "Uc\u00fa",
        "state": "Yucat\u00e1n",
        "code": "31100",
        "lat": 21.06295748894596,
        "lon": -89.77988756989969,
        "hasSupercharger": false,
        "edges": []
    },
    "32023": {
        "name": "Juchipila",
        "state": "Zacatecas",
        "code": "32023",
        "lat": 21.37670538937664,
        "lon": -103.12408697524856,
        "hasSupercharger": false,
        "edges": []
    },
    "02001": {
        "name": "Ensenada",
        "state": "Baja California",
        "code": "02001",
        "lat": 31.516856573722805,
        "lon": -116.06051134039427,
        "hasSupercharger": true,
        "edges": []
    },
    "07013": {
        "name": "Bochil",
        "state": "Chiapas",
        "code": "07013",
        "lat": 17.01412445116183,
        "lon": -92.95879029368162,
        "hasSupercharger": false,
        "edges": []
    },
    "07053": {
        "name": "Mazapa de Madero",
        "state": "Chiapas",
        "code": "07053",
        "lat": 15.372767030892547,
        "lon": -92.18576395987252,
        "hasSupercharger": false,
        "edges": []
    },
    "07071": {
        "name": "Villa Comaltitl\u00e1n",
        "state": "Chiapas",
        "code": "07071",
        "lat": 15.165419727891962,
        "lon": -92.61956699399462,
        "hasSupercharger": false,
        "edges": []
    },
    "07094": {
        "name": "Teopisca",
        "state": "Chiapas",
        "code": "07094",
        "lat": 16.56110053072675,
        "lon": -92.50881643014594,
        "hasSupercharger": false,
        "edges": []
    },
    "08060": {
        "name": "Santa B\u00e1rbara",
        "state": "Chihuahua",
        "code": "08060",
        "lat": 26.803921888213452,
        "lon": -105.78292331796371,
        "hasSupercharger": false,
        "edges": []
    },
    "08065": {
        "name": "Urique",
        "state": "Chihuahua",
        "code": "08065",
        "lat": 27.226298412729776,
        "lon": -107.97641188326773,
        "hasSupercharger": false,
        "edges": []
    },
    "10018": {
        "name": "El Oro",
        "state": "Durango",
        "code": "10018",
        "lat": 25.549024358341878,
        "lon": -105.2158510839462,
        "hasSupercharger": false,
        "edges": []
    },
    "10034": {
        "name": "Tamazula",
        "state": "Durango",
        "code": "10034",
        "lat": 24.946755623810887,
        "lon": -106.71199391432573,
        "hasSupercharger": false,
        "edges": []
    },
    "11002": {
        "name": "Ac\u00e1mbaro",
        "state": "Guanajuato",
        "code": "11002",
        "lat": 20.05246603044155,
        "lon": -100.7519752825245,
        "hasSupercharger": false,
        "edges": []
    },
    "11031": {
        "name": "San Francisco del Rinc\u00f3n",
        "state": "Guanajuato",
        "code": "11031",
        "lat": 20.91912372332148,
        "lon": -101.7885191620199,
        "hasSupercharger": false,
        "edges": []
    },
    "11041": {
        "name": "Uriangato",
        "state": "Guanajuato",
        "code": "11041",
        "lat": 20.11969027976784,
        "lon": -101.15261997329412,
        "hasSupercharger": false,
        "edges": []
    },
    "12020": {
        "name": "Copanatoyac",
        "state": "Guerrero",
        "code": "12020",
        "lat": 17.432623153984064,
        "lon": -98.70190148787793,
        "hasSupercharger": false,
        "edges": []
    },
    "12029": {
        "name": "Chilpancingo de los Bravo",
        "state": "Guerrero",
        "code": "12029",
        "lat": 17.390831410744063,
        "lon": -99.69744667632656,
        "hasSupercharger": true,
        "edges": []
    },
    "12040": {
        "name": "Leonardo Bravo",
        "state": "Guerrero",
        "code": "12040",
        "lat": 17.63193725322734,
        "lon": -99.79579250805737,
        "hasSupercharger": false,
        "edges": []
    },
    "12044": {
        "name": "Mochitl\u00e1n",
        "state": "Guerrero",
        "code": "12044",
        "lat": 17.336841109692138,
        "lon": -99.37059748323308,
        "hasSupercharger": false,
        "edges": []
    },
    "12047": {
        "name": "Pedro Ascencio Alquisiras",
        "state": "Guerrero",
        "code": "12047",
        "lat": 18.544668903596996,
        "lon": -99.86922005101803,
        "hasSupercharger": false,
        "edges": []
    },
    "12051": {
        "name": "Quechultenango",
        "state": "Guerrero",
        "code": "12051",
        "lat": 17.312822570305478,
        "lon": -99.18521608402595,
        "hasSupercharger": false,
        "edges": []
    },
    "12053": {
        "name": "San Marcos",
        "state": "Guerrero",
        "code": "12053",
        "lat": 16.821045555365718,
        "lon": -99.43365621230103,
        "hasSupercharger": false,
        "edges": []
    },
    "12065": {
        "name": "Tlalixtaquilla de Maldonado",
        "state": "Guerrero",
        "code": "12065",
        "lat": 17.57165371232606,
        "lon": -98.40919868257998,
        "hasSupercharger": false,
        "edges": []
    },
    "12081": {
        "name": "Iliatenco",
        "state": "Guerrero",
        "code": "12081",
        "lat": 17.048232490584848,
        "lon": -98.63759150419632,
        "hasSupercharger": false,
        "edges": []
    },
    "13030": {
        "name": "Ixmiquilpan",
        "state": "Hidalgo",
        "code": "13030",
        "lat": 20.532514048223398,
        "lon": -99.20132747879059,
        "hasSupercharger": false,
        "edges": []
    },
    "13038": {
        "name": "Mineral del Chico",
        "state": "Hidalgo",
        "code": "13038",
        "lat": 20.22304494166111,
        "lon": -98.75355697104297,
        "hasSupercharger": false,
        "edges": []
    },
    "14076": {
        "name": "San Mart\u00edn de Bola\u00f1os",
        "state": "Jalisco",
        "code": "14076",
        "lat": 21.595891162619438,
        "lon": -103.78501198623142,
        "hasSupercharger": false,
        "edges": []
    },
    "14100": {
        "name": "Tomatl\u00e1n",
        "state": "Jalisco",
        "code": "14100",
        "lat": 19.979522006905025,
        "lon": -105.16488185135512,
        "hasSupercharger": false,
        "edges": []
    },
    "15041": {
        "name": "Ixtapan del Oro",
        "state": "M\u00e9xico",
        "code": "15041",
        "lat": 19.257426344192076,
        "lon": -100.27785083915633,
        "hasSupercharger": false,
        "edges": []
    },
    "15081": {
        "name": "Tec\u00e1mac",
        "state": "M\u00e9xico",
        "code": "15081",
        "lat": 19.705835268559436,
        "lon": -98.986508977449,
        "hasSupercharger": false,
        "edges": []
    },
    "16003": {
        "name": "\u00c1lvaro Obreg\u00f3n",
        "state": "Michoac\u00e1n de Ocampo",
        "code": "16003",
        "lat": 19.873540026921663,
        "lon": -101.02176221937435,
        "hasSupercharger": false,
        "edges": []
    },
    "16034": {
        "name": "Hidalgo",
        "state": "Michoac\u00e1n de Ocampo",
        "code": "16034",
        "lat": 19.612602007772573,
        "lon": -100.67789836807178,
        "hasSupercharger": false,
        "edges": []
    },
    "16066": {
        "name": "P\u00e1tzcuaro",
        "state": "Michoac\u00e1n de Ocampo",
        "code": "16066",
        "lat": 19.49449860892584,
        "lon": -101.59901887016878,
        "hasSupercharger": false,
        "edges": []
    },
    "16089": {
        "name": "Tepalcatepec",
        "state": "Michoac\u00e1n de Ocampo",
        "code": "16089",
        "lat": 19.068237017184416,
        "lon": -102.85832906974294,
        "hasSupercharger": false,
        "edges": []
    },
    "19036": {
        "name": "Mier y Noriega",
        "state": "Nuevo Le\u00f3n",
        "code": "19036",
        "lat": 23.417916371956824,
        "lon": -100.16040819404567,
        "hasSupercharger": false,
        "edges": []
    },
    "19040": {
        "name": "Par\u00e1s",
        "state": "Nuevo Le\u00f3n",
        "code": "19040",
        "lat": 26.583041419120764,
        "lon": -99.6015536797052,
        "hasSupercharger": false,
        "edges": []
    },
    "20008": {
        "name": "Asunci\u00f3n Tlacolulita",
        "state": "Oaxaca",
        "code": "20008",
        "lat": 16.226119872942526,
        "lon": -95.766198363753,
        "hasSupercharger": false,
        "edges": []
    },
    "20009": {
        "name": "Ayotzintepec",
        "state": "Oaxaca",
        "code": "20009",
        "lat": 17.714642271974114,
        "lon": -96.1668031651349,
        "hasSupercharger": false,
        "edges": []
    },
    "20011": {
        "name": "Calihual\u00e1",
        "state": "Oaxaca",
        "code": "20011",
        "lat": 17.545738431322704,
        "lon": -98.25385498933589,
        "hasSupercharger": false,
        "edges": []
    },
    "20052": {
        "name": "Magdalena Tequisistl\u00e1n",
        "state": "Oaxaca",
        "code": "20052",
        "lat": 16.34777002970513,
        "lon": -95.6553120049705,
        "hasSupercharger": false,
        "edges": []
    },
    "20053": {
        "name": "Magdalena Tlacotepec",
        "state": "Oaxaca",
        "code": "20053",
        "lat": 16.51083652558773,
        "lon": -95.25267032400528,
        "hasSupercharger": false,
        "edges": []
    },
    "20068": {
        "name": "Ocotl\u00e1n de Morelos",
        "state": "Oaxaca",
        "code": "20068",
        "lat": 16.761793432013672,
        "lon": -96.7033947591377,
        "hasSupercharger": false,
        "edges": []
    },
    "20106": {
        "name": "San Antonio Acutla",
        "state": "Oaxaca",
        "code": "20106",
        "lat": 17.742889188826513,
        "lon": -97.49559606522891,
        "hasSupercharger": false,
        "edges": []
    },
    "20125": {
        "name": "San Carlos Yautepec",
        "state": "Oaxaca",
        "code": "20125",
        "lat": 16.41468374013223,
        "lon": -95.96223320779494,
        "hasSupercharger": false,
        "edges": []
    },
    "20134": {
        "name": "San Felipe Jalapa de D\u00edaz",
        "state": "Oaxaca",
        "code": "20134",
        "lat": 18.06964468213984,
        "lon": -96.53509838500361,
        "hasSupercharger": false,
        "edges": []
    },
    "20148": {
        "name": "San Francisco Ozolotepec",
        "state": "Oaxaca",
        "code": "20148",
        "lat": 16.09335817924481,
        "lon": -96.20194849614852,
        "hasSupercharger": false,
        "edges": []
    },
    "20197": {
        "name": "San Juan Guelav\u00eda",
        "state": "Oaxaca",
        "code": "20197",
        "lat": 16.953906717970835,
        "lon": -96.54152235177006,
        "hasSupercharger": false,
        "edges": []
    },
    "20246": {
        "name": "San Mateo Cajonos",
        "state": "Oaxaca",
        "code": "20246",
        "lat": 17.152972661188464,
        "lon": -96.19696656216881,
        "hasSupercharger": false,
        "edges": []
    },
    "20283": {
        "name": "San Miguel Tequixtepec",
        "state": "Oaxaca",
        "code": "20283",
        "lat": 17.824187891744607,
        "lon": -97.31488047271641,
        "hasSupercharger": false,
        "edges": []
    },
    "20350": {
        "name": "San Sebasti\u00e1n Tutla",
        "state": "Oaxaca",
        "code": "20350",
        "lat": 17.04530147695028,
        "lon": -96.67971274222441,
        "hasSupercharger": false,
        "edges": []
    },
    "20445": {
        "name": "Santa Mar\u00eda Yosoy\u00faa",
        "state": "Oaxaca",
        "code": "20445",
        "lat": 17.107438117723568,
        "lon": -97.50000039742162,
        "hasSupercharger": false,
        "edges": []
    },
    "20458": {
        "name": "Santiago Comaltepec",
        "state": "Oaxaca",
        "code": "20458",
        "lat": 17.615924040953786,
        "lon": -96.39463830726852,
        "hasSupercharger": false,
        "edges": []
    },
    "20471": {
        "name": "Santiago Lalopa",
        "state": "Oaxaca",
        "code": "20471",
        "lat": 17.414523557972338,
        "lon": -96.25064570585018,
        "hasSupercharger": false,
        "edges": []
    },
    "20532": {
        "name": "Santo Tom\u00e1s Ocotepec",
        "state": "Oaxaca",
        "code": "20532",
        "lat": 17.114422067004185,
        "lon": -97.78216914690105,
        "hasSupercharger": false,
        "edges": []
    },
    "20561": {
        "name": "Yaxe",
        "state": "Oaxaca",
        "code": "20561",
        "lat": 16.708647487604644,
        "lon": -96.44799301277124,
        "hasSupercharger": false,
        "edges": []
    },
    "21003": {
        "name": "Acatl\u00e1n",
        "state": "Puebla",
        "code": "21003",
        "lat": 18.158933923620616,
        "lon": -98.10640414316038,
        "hasSupercharger": false,
        "edges": []
    },
    "21018": {
        "name": "Atexcal",
        "state": "Puebla",
        "code": "21018",
        "lat": 18.375570802760517,
        "lon": -97.69008194612381,
        "hasSupercharger": false,
        "edges": []
    },
    "21059": {
        "name": "Chinantla",
        "state": "Puebla",
        "code": "21059",
        "lat": 18.232933931197152,
        "lon": -98.27959550525442,
        "hasSupercharger": false,
        "edges": []
    },
    "21127": {
        "name": "San Jer\u00f3nimo Xayacatl\u00e1n",
        "state": "Puebla",
        "code": "21127",
        "lat": 18.198491537990154,
        "lon": -97.92168012101833,
        "hasSupercharger": false,
        "edges": []
    },
    "21159": {
        "name": "Teopantl\u00e1n",
        "state": "Puebla",
        "code": "21159",
        "lat": 18.729464385702208,
        "lon": -98.25059857259382,
        "hasSupercharger": false,
        "edges": []
    },
    "24010": {
        "name": "Ciudad del Ma\u00edz",
        "state": "San Luis Potos\u00ed",
        "code": "24010",
        "lat": 22.439144991375098,
        "lon": -99.71753175306033,
        "hasSupercharger": false,
        "edges": []
    },
    "25014": {
        "name": "Rosario",
        "state": "Sinaloa",
        "code": "25014",
        "lat": 23.056205462246748,
        "lon": -105.80534849133109,
        "hasSupercharger": false,
        "edges": []
    },
    "26011": {
        "name": "Bacoachi",
        "state": "Sonora",
        "code": "26011",
        "lat": 30.669707997210182,
        "lon": -109.9790908322229,
        "hasSupercharger": false,
        "edges": []
    },
    "26022": {
        "name": "Cucurpe",
        "state": "Sonora",
        "code": "26022",
        "lat": 30.411537839242747,
        "lon": -110.63057965059194,
        "hasSupercharger": false,
        "edges": []
    },
    "26049": {
        "name": "Quiriego",
        "state": "Sonora",
        "code": "26049",
        "lat": 27.57898611319803,
        "lon": -109.36487408859246,
        "hasSupercharger": false,
        "edges": []
    },
    "26062": {
        "name": "Suaqui Grande",
        "state": "Sonora",
        "code": "26062",
        "lat": 28.39162668555778,
        "lon": -109.88652877640205,
        "hasSupercharger": false,
        "edges": []
    },
    "29007": {
        "name": "El Carmen Tequexquitla",
        "state": "Tlaxcala",
        "code": "29007",
        "lat": 19.335707329986175,
        "lon": -97.67432729973727,
        "hasSupercharger": false,
        "edges": []
    },
    "29046": {
        "name": "Emiliano Zapata",
        "state": "Tlaxcala",
        "code": "29046",
        "lat": 19.56385010241208,
        "lon": -97.92594773627967,
        "hasSupercharger": false,
        "edges": []
    },
    "29057": {
        "name": "Santa Apolonia Teacalco",
        "state": "Tlaxcala",
        "code": "29057",
        "lat": 19.245921084268723,
        "lon": -98.31345128984408,
        "hasSupercharger": false,
        "edges": []
    },
    "30027": {
        "name": "Benito Ju\u00e1rez",
        "state": "Veracruz de Ignacio de la Llave",
        "code": "30027",
        "lat": 20.819246072469827,
        "lon": -98.17862900273221,
        "hasSupercharger": false,
        "edges": []
    },
    "30067": {
        "name": "Filomeno Mata",
        "state": "Veracruz de Ignacio de la Llave",
        "code": "30067",
        "lat": 20.205288262545288,
        "lon": -97.69908404175436,
        "hasSupercharger": false,
        "edges": []
    },
    "30132": {
        "name": "Las Vigas de Ram\u00edrez",
        "state": "Veracruz de Ignacio de la Llave",
        "code": "30132",
        "lat": 19.622287948404296,
        "lon": -97.09478479053297,
        "hasSupercharger": false,
        "edges": []
    },
    "30154": {
        "name": "Tantima",
        "state": "Veracruz de Ignacio de la Llave",
        "code": "30154",
        "lat": 21.426954533452946,
        "lon": -97.75595434439249,
        "hasSupercharger": false,
        "edges": []
    },
    "30164": {
        "name": "Teocelo",
        "state": "Veracruz de Ignacio de la Llave",
        "code": "30164",
        "lat": 19.37380762941653,
        "lon": -96.94157266962893,
        "hasSupercharger": false,
        "edges": []
    },
    "30167": {
        "name": "Tepetzintla",
        "state": "Veracruz de Ignacio de la Llave",
        "code": "30167",
        "lat": 21.148666088672464,
        "lon": -97.8630596065472,
        "hasSupercharger": false,
        "edges": []
    },
    "30171": {
        "name": "Texhuac\u00e1n",
        "state": "Veracruz de Ignacio de la Llave",
        "code": "30171",
        "lat": 18.61899581069823,
        "lon": -97.03206390731738,
        "hasSupercharger": false,
        "edges": []
    },
    "30182": {
        "name": "Tlalnelhuayocan",
        "state": "Veracruz de Ignacio de la Llave",
        "code": "30182",
        "lat": 19.541103558946023,
        "lon": -96.98304397820387,
        "hasSupercharger": false,
        "edges": []
    },
    "31013": {
        "name": "Conkal",
        "state": "Yucat\u00e1n",
        "code": "31013",
        "lat": 21.08211625315454,
        "lon": -89.51376982236789,
        "hasSupercharger": false,
        "edges": []
    },
    "31022": {
        "name": "Chikindzonot",
        "state": "Yucat\u00e1n",
        "code": "31022",
        "lat": 20.27386216769813,
        "lon": -88.52659303629068,
        "hasSupercharger": false,
        "edges": []
    },
    "31032": {
        "name": "Espita",
        "state": "Yucat\u00e1n",
        "code": "31032",
        "lat": 21.02120497220934,
        "lon": -88.35707797531221,
        "hasSupercharger": false,
        "edges": []
    },
    "31066": {
        "name": "Santa Elena",
        "state": "Yucat\u00e1n",
        "code": "31066",
        "lat": 20.268299526066784,
        "lon": -89.72647673043654,
        "hasSupercharger": false,
        "edges": []
    },
    "31087": {
        "name": "Tetiz",
        "state": "Yucat\u00e1n",
        "code": "31087",
        "lat": 20.9561953928272,
        "lon": -90.05809674337377,
        "hasSupercharger": false,
        "edges": []
    },
    "31093": {
        "name": "Tixkokob",
        "state": "Yucat\u00e1n",
        "code": "31093",
        "lat": 20.97874675156732,
        "lon": -89.37603917076206,
        "hasSupercharger": false,
        "edges": []
    },
    "31102": {
        "name": "Valladolid",
        "state": "Yucat\u00e1n",
        "code": "31102",
        "lat": 20.638371348834816,
        "lon": -88.10839213153548,
        "hasSupercharger": true,
        "edges": []
    },
    "32006": {
        "name": "Ca\u00f1itas de Felipe Pescador",
        "state": "Zacatecas",
        "code": "32006",
        "lat": 23.57732955580899,
        "lon": -102.73261331751051,
        "hasSupercharger": false,
        "edges": []
    },
    "32015": {
        "name": "El Plateado de Joaqu\u00edn Amaro",
        "state": "Zacatecas",
        "code": "32015",
        "lat": 21.999050189015158,
        "lon": -103.05008971337884,
        "hasSupercharger": false,
        "edges": []
    },
    "01010": {
        "name": "El Llano",
        "state": "Aguascalientes",
        "code": "01010",
        "lat": 21.92151792697934,
        "lon": -102.03539809403783,
        "hasSupercharger": false,
        "edges": []
    },
    "05023": {
        "name": "Ocampo",
        "state": "Coahuila de Zaragoza",
        "code": "05023",
        "lat": 27.96561828163739,
        "lon": -102.89288887879685,
        "hasSupercharger": false,
        "edges": []
    },
    "05027": {
        "name": "Ramos Arizpe",
        "state": "Coahuila de Zaragoza",
        "code": "05027",
        "lat": 25.91374729222969,
        "lon": -101.28206490798222,
        "hasSupercharger": true,
        "edges": []
    },
    "05030": {
        "name": "Saltillo",
        "state": "Coahuila de Zaragoza",
        "code": "05030",
        "lat": 25.029147648372224,
        "lon": -101.12510898604148,
        "hasSupercharger": false,
        "edges": []
    },
    "07001": {
        "name": "Acacoyagua",
        "state": "Chiapas",
        "code": "07001",
        "lat": 15.414140484007573,
        "lon": -92.68168524373007,
        "hasSupercharger": false,
        "edges": []
    },
    "07041": {
        "name": "La Independencia",
        "state": "Chiapas",
        "code": "07041",
        "lat": 16.204701793132312,
        "lon": -91.79579683846907,
        "hasSupercharger": false,
        "edges": []
    },
    "07056": {
        "name": "Mitontic",
        "state": "Chiapas",
        "code": "07056",
        "lat": 16.874812398219007,
        "lon": -92.56309102703551,
        "hasSupercharger": false,
        "edges": []
    },
    "07097": {
        "name": "Tonal\u00e1",
        "state": "Chiapas",
        "code": "07097",
        "lat": 15.996915309647557,
        "lon": -93.69056802348025,
        "hasSupercharger": false,
        "edges": []
    },
    "07112": {
        "name": "San Juan Cancuc",
        "state": "Chiapas",
        "code": "07112",
        "lat": 16.930158791333636,
        "lon": -92.3916702530706,
        "hasSupercharger": false,
        "edges": []
    },
    "07117": {
        "name": "Montecristo de Guerrero",
        "state": "Chiapas",
        "code": "07117",
        "lat": 15.671676787181445,
        "lon": -92.66439087187447,
        "hasSupercharger": false,
        "edges": []
    },
    "07123": {
        "name": "Emiliano Zapata",
        "state": "Chiapas",
        "code": "07123",
        "lat": 16.49890599248891,
        "lon": -92.88268297056234,
        "hasSupercharger": false,
        "edges": []
    },
    "08018": {
        "name": "Cusihuiriachi",
        "state": "Chihuahua",
        "code": "08018",
        "lat": 28.211633935638837,
        "lon": -106.89692965047804,
        "hasSupercharger": false,
        "edges": []
    },
    "08028": {
        "name": "Guadalupe",
        "state": "Chihuahua",
        "code": "08028",
        "lat": 30.827270008231242,
        "lon": -105.64051079127921,
        "hasSupercharger": false,
        "edges": []
    },
    "08038": {
        "name": "Julimes",
        "state": "Chihuahua",
        "code": "08038",
        "lat": 28.54101037370939,
        "lon": -105.0545044063146,
        "hasSupercharger": false,
        "edges": []
    },
    "08043": {
        "name": "Matach\u00ed",
        "state": "Chihuahua",
        "code": "08043",
        "lat": 28.82410044808141,
        "lon": -107.7206316578017,
        "hasSupercharger": false,
        "edges": []
    },
    "08050": {
        "name": "Nuevo Casas Grandes",
        "state": "Chihuahua",
        "code": "08050",
        "lat": 30.53285006947439,
        "lon": -107.72906008950162,
        "hasSupercharger": false,
        "edges": []
    },
    "11008": {
        "name": "Manuel Doblado",
        "state": "Guanajuato",
        "code": "11008",
        "lat": 20.712950298694686,
        "lon": -101.87978906570159,
        "hasSupercharger": false,
        "edges": []
    },
    "11011": {
        "name": "Cortazar",
        "state": "Guanajuato",
        "code": "11011",
        "lat": 20.429114283721763,
        "lon": -100.93837241073301,
        "hasSupercharger": false,
        "edges": []
    },
    "11013": {
        "name": "Doctor Mora",
        "state": "Guanajuato",
        "code": "11013",
        "lat": 21.14160199432379,
        "lon": -100.35963510960146,
        "hasSupercharger": false,
        "edges": []
    },
    "11014": {
        "name": "Dolores Hidalgo Cuna de la Independencia Nacional",
        "state": "Guanajuato",
        "code": "11014",
        "lat": 21.14701687539865,
        "lon": -100.93477588858791,
        "hasSupercharger": false,
        "edges": []
    },
    "11027": {
        "name": "Salamanca",
        "state": "Guanajuato",
        "code": "11027",
        "lat": 20.62510792589812,
        "lon": -101.16509553445545,
        "hasSupercharger": false,
        "edges": []
    },
    "11040": {
        "name": "Tierra Blanca",
        "state": "Guanajuato",
        "code": "11040",
        "lat": 21.032290051783665,
        "lon": -100.15600663347104,
        "hasSupercharger": false,
        "edges": []
    },
    "13016": {
        "name": "Cuautepec de Hinojosa",
        "state": "Hidalgo",
        "code": "13016",
        "lat": 19.984303693609295,
        "lon": -98.28167001976244,
        "hasSupercharger": false,
        "edges": []
    },
    "13050": {
        "name": "Progreso de Obreg\u00f3n",
        "state": "Hidalgo",
        "code": "13050",
        "lat": 20.31432372041737,
        "lon": -99.17815447710349,
        "hasSupercharger": false,
        "edges": []
    },
    "14007": {
        "name": "San Juanito de Escobedo",
        "state": "Jalisco",
        "code": "14007",
        "lat": 20.809100830819375,
        "lon": -104.00678288451606,
        "hasSupercharger": false,
        "edges": []
    },
    "14012": {
        "name": "Atenguillo",
        "state": "Jalisco",
        "code": "14012",
        "lat": 20.33673360540796,
        "lon": -104.55067388394299,
        "hasSupercharger": false,
        "edges": []
    },
    "14070": {
        "name": "El Salto",
        "state": "Jalisco",
        "code": "14070",
        "lat": 20.5390308754952,
        "lon": -103.24545860157885,
        "hasSupercharger": false,
        "edges": []
    },
    "14080": {
        "name": "San Sebasti\u00e1n del Oeste",
        "state": "Jalisco",
        "code": "14080",
        "lat": 20.852451261820082,
        "lon": -104.82612228581854,
        "hasSupercharger": false,
        "edges": []
    },
    "15020": {
        "name": "Coacalco de Berrioz\u00e1bal",
        "state": "M\u00e9xico",
        "code": "15020",
        "lat": 19.62629290915753,
        "lon": -99.10239791371198,
        "hasSupercharger": false,
        "edges": []
    },
    "15090": {
        "name": "Tenango del Valle",
        "state": "M\u00e9xico",
        "code": "15090",
        "lat": 19.081351398451627,
        "lon": -99.63028689693977,
        "hasSupercharger": false,
        "edges": []
    },
    "15098": {
        "name": "Texcalyacac",
        "state": "M\u00e9xico",
        "code": "15098",
        "lat": 19.129640042550392,
        "lon": -99.50642920693767,
        "hasSupercharger": false,
        "edges": []
    },
    "15118": {
        "name": "Zinacantepec",
        "state": "M\u00e9xico",
        "code": "15118",
        "lat": 19.21501847646204,
        "lon": -99.79782100959369,
        "hasSupercharger": false,
        "edges": []
    },
    "15123": {
        "name": "Luvianos",
        "state": "M\u00e9xico",
        "code": "15123",
        "lat": 18.94081895884485,
        "lon": -100.40648718028163,
        "hasSupercharger": false,
        "edges": []
    },
    "16030": {
        "name": "Ecuandureo",
        "state": "Michoac\u00e1n de Ocampo",
        "code": "16030",
        "lat": 20.155560786019848,
        "lon": -102.2434162021168,
        "hasSupercharger": false,
        "edges": []
    },
    "16049": {
        "name": "Madero",
        "state": "Michoac\u00e1n de Ocampo",
        "code": "16049",
        "lat": 19.342472602145083,
        "lon": -101.17021673458504,
        "hasSupercharger": false,
        "edges": []
    },
    "17007": {
        "name": "Cuernavaca",
        "state": "Morelos",
        "code": "17007",
        "lat": 18.938885113364535,
        "lon": -99.26302657427541,
        "hasSupercharger": true,
        "edges": []
    },
    "19011": {
        "name": "Cerralvo",
        "state": "Nuevo Le\u00f3n",
        "code": "19011",
        "lat": 26.072317420748433,
        "lon": -99.70537119036558,
        "hasSupercharger": false,
        "edges": []
    },
    "19030": {
        "name": "Iturbide",
        "state": "Nuevo Le\u00f3n",
        "code": "19030",
        "lat": 24.638421485069028,
        "lon": -99.8487180456555,
        "hasSupercharger": false,
        "edges": []
    },
    "19037": {
        "name": "Mina",
        "state": "Nuevo Le\u00f3n",
        "code": "19037",
        "lat": 26.2855835436731,
        "lon": -100.7862769602061,
        "hasSupercharger": false,
        "edges": []
    },
    "20038": {
        "name": "Villa Hidalgo",
        "state": "Oaxaca",
        "code": "20038",
        "lat": 17.18117228238005,
        "lon": -96.16018514519389,
        "hasSupercharger": false,
        "edges": []
    },
    "20050": {
        "name": "Magdalena Pe\u00f1asco",
        "state": "Oaxaca",
        "code": "20050",
        "lat": 17.240459186327392,
        "lon": -97.55388406611007,
        "hasSupercharger": false,
        "edges": []
    },
    "20069": {
        "name": "La Pe",
        "state": "Oaxaca",
        "code": "20069",
        "lat": 16.623508255140305,
        "lon": -96.7938872028135,
        "hasSupercharger": false,
        "edges": []
    },
    "20079": {
        "name": "Salina Cruz",
        "state": "Oaxaca",
        "code": "20079",
        "lat": 16.193354818300435,
        "lon": -95.21971486323729,
        "hasSupercharger": false,
        "edges": []
    },
    "20121": {
        "name": "San Bartolo Soyaltepec",
        "state": "Oaxaca",
        "code": "20121",
        "lat": 17.58442238934921,
        "lon": -97.31416308017293,
        "hasSupercharger": false,
        "edges": []
    },
    "20146": {
        "name": "San Francisco Logueche",
        "state": "Oaxaca",
        "code": "20146",
        "lat": 16.373427786877393,
        "lon": -96.38012471889378,
        "hasSupercharger": false,
        "edges": []
    },