{
    "12068": {
        "name": "La Uni\u00f3n de Isidoro Montes de Oca",
        "state": "Guerrero",
        "code": "12068",
        "lat": 18.01662594076302,
        "lon": -101.8549774551788,
        "hasSupercharger": false,
        "edges": [
            {
                "fromMuniCode": "12068",
                "toMuniCode": "12016",
                "distance": 22.828072292044013
            }
        ]
    },
    "02001": {
        "name": "Ensenada",
        "state": "Baja California",
        "code": "02001",
        "lat": 31.516856573722805,
        "lon": -116.06051134039427,
        "hasSupercharger": true,
        "edges": [
            {
                "fromMuniCode": "02001",
                "toMuniCode": "02002",
                "distance": 62.23689879442157
            },
            {
                "fromMuniCode": "02001",
                "toMuniCode": "02007",
                "distance": 89.9296511510803
            }
        ]
    },
    "21089": {
        "name": "Jopala",
        "state": "Puebla",
        "code": "21089",
        "lat": 20.206400164701115,
        "lon": -97.77798672218044,
        "hasSupercharger": false,
        "edges": []
    },
    "32042": {
        "name": "Sombrerete",
        "state": "Zacatecas",
        "code": "32042",
        "lat": 23.64016051386638,
        "lon": -103.61477958153797,
        "hasSupercharger": false,
        "edges": []
    },
    "22014": {
        "name": "Quer\u00e9taro",
        "state": "Quer\u00e9taro",
        "code": "22014",
        "lat": 20.728806294424913,
        "lon": -100.45270898549865,
        "hasSupercharger": false,
        "edges": [
            {
                "fromMuniCode": "22014",
                "toMuniCode": "11005",
                "distance": 15.221987245406222
            }
        ]
    },
    "10034": {
        "name": "Tamazula",
        "state": "Durango",
        "code": "10034",
        "lat": 24.946755623810887,
        "lon": -106.71199391432573,
        "hasSupercharger": false,
        "edges": [
            {
                "fromMuniCode": "10034",
                "toMuniCode": "25006",
                "distance": 40.355725311310906
            },
            {
                "fromMuniCode": "10034",
                "toMuniCode": "25005",
                "distance": 32.619282616480106
            }
        ]
    },
    "15074": {
        "name": "San Felipe del Progreso",
        "state": "M\u00e9xico",
        "code": "15074",
        "lat": 19.65322498044937,
        "lon": -99.9825220404462,
        "hasSupercharger": false,
        "edges": [
            {
                "fromMuniCode": "15074",
                "toMuniCode": "15042",
                "distance": 12.240634361749631
            }
        ]
    },
    "30109": {
        "name": "Misantla",
        "state": "Veracruz de Ignacio de la Llave",
        "code": "30109",
        "lat": 19.96257992766728,
        "lon": -96.88543675936508,
        "hasSupercharger": false,
        "edges": [
            {
                "fromMuniCode": "30109",
                "toMuniCode": "30042",
                "distance": 11.88080344553032
            },
            {
                "fromMuniCode": "30109",
                "toMuniCode": "30197",
                "distance": 10.747293604378836
            }
        ]
    },
    "20448": {
        "name": "Santa Mar\u00eda Zaniza",
        "state": "Oaxaca",
        "code": "20448",
        "lat": 16.642764038325357,
        "lon": -97.35910236303741,
        "hasSupercharger": false,
        "edges": [
            {
                "fromMuniCode": "20448",
                "toMuniCode": "20516",
                "distance": 7.131821870999441
            },
            {
                "fromMuniCode": "20448",
                "toMuniCode": "20450",
                "distance": 10.737830064913236
            }
        ]
    },
    "27004": {
        "name": "Centro",
        "state": "Tabasco",
        "code": "27004",
        "lat": 18.009102683936163,
        "lon": -92.86021383822735,
        "hasSupercharger": false,
        "edges": []
    },
    "08021": {
        "name": "Delicias",
        "state": "Chihuahua",
        "code": "08021",
        "lat": 28.119491152459297,
        "lon": -105.49186063113868,
        "hasSupercharger": false,
        "edges": []
    },
    "12040": {
        "name": "Leonardo Bravo",
        "state": "Guerrero",
        "code": "12040",
        "lat": 17.63193725322734,
        "lon": -99.79579250805737,
        "hasSupercharger": false,
        "edges": [
            {
                "fromMuniCode": "12040",
                "toMuniCode": "12029",
                "distance": 17.878604839675816
            }
        ]
    },
    "29010": {
        "name": "Chiautempan",
        "state": "Tlaxcala",
        "code": "29010",
        "lat": 19.290230495497923,
        "lon": -98.12914234396547,
        "hasSupercharger": false,
        "edges": [
            {
                "fromMuniCode": "29010",
                "toMuniCode": "29060",
                "distance": 5.40375312990087
            }
        ]
    },
    "18002": {
        "name": "Ahuacatl\u00e1n",
        "state": "Nayarit",
        "code": "18002",
        "lat": 21.041113995377597,
        "lon": -104.57634346973714,
        "hasSupercharger": false,
        "edges": [
            {
                "fromMuniCode": "18002",
                "toMuniCode": "18006",
                "distance": 17.383961871270106
            }
        ]
    },
    "08030": {
        "name": "Guazapares",
        "state": "Chihuahua",
        "code": "08030",
        "lat": 27.39095170148741,
        "lon": -108.27405604410205,
        "hasSupercharger": false,
        "edges": []
    },
    "31006": {
        "name": "Buctzotz",
        "state": "Yucat\u00e1n",
        "code": "31006",
        "lat": 21.221767005451035,
        "lon": -88.64962507485983,
        "hasSupercharger": false,
        "edges": [
            {
                "fromMuniCode": "31006",
                "toMuniCode": "31028",
                "distance": 14.684427330802787
            }
        ]
    },
    "12018": {
        "name": "Copala",
        "state": "Guerrero",
        "code": "12018",
        "lat": 16.608023076945802,
        "lon": -98.93060195282771,
        "hasSupercharger": false,
        "edges": []
    },
    "20333": {
        "name": "San Pedro Totol\u00e1pam",
        "state": "Oaxaca",
        "code": "20333",
        "lat": 16.662842096431415,
        "lon": -96.22921289179129,
        "hasSupercharger": false,
        "edges": [
            {
                "fromMuniCode": "20333",
                "toMuniCode": "20449",
                "distance": 11.7849381611516
            },
            {
                "fromMuniCode": "20333",
                "toMuniCode": "20325",
                "distance": 14.773750190211922
            }
        ]
    },
    "11005": {
        "name": "Apaseo el Grande",
        "state": "Guanajuato",
        "code": "11005",
        "lat": 20.57551150640157,
        "lon": -100.621737700368,
        "hasSupercharger": false,
        "edges": [
            {
                "fromMuniCode": "11005",
                "toMuniCode": "11004",
                "distance": 11.069155762894187
            },
            {
                "fromMuniCode": "11005",
                "toMuniCode": "22014",
                "distance": 15.221987245406222
            }
        ]
    },
    "20467": {
        "name": "Santiago Jamiltepec",
        "state": "Oaxaca",
        "code": "20467",
        "lat": 16.20202526386172,
        "lon": -97.78525145477086,
        "hasSupercharger": false,
        "edges": []
    },
    "32057": {
        "name": "Trancoso",
        "state": "Zacatecas",
        "code": "32057",
        "lat": 22.755628769030544,
        "lon": -102.3120040956667,
        "hasSupercharger": false,
        "edges": [
            {
                "fromMuniCode": "32057",
                "toMuniCode": "32036",
                "distance": 14.303810218824184
            },
            {
                "fromMuniCode": "32057",
                "toMuniCode": "32008",
                "distance": 21.787998268197843
            }
        ]
    },
    "21042": {
        "name": "Cuayuca de Andrade",
        "state": "Puebla",
        "code": "21042",
        "lat": 18.445664598087717,
        "lon": -98.18898797668734,
        "hasSupercharger": false,
        "edges": [
            {
                "fromMuniCode": "21042",
                "toMuniCode": "21157",
                "distance": 9.8831152793205
            }
        ]
    },
    "20334": {
        "name": "Villa de Tututepec",
        "state": "Oaxaca",
        "code": "20334",
        "lat": 16.077556148247556,
        "lon": -97.53739281242517,
        "hasSupercharger": false,
        "edges": [
            {
                "fromMuniCode": "20334",
                "toMuniCode": "20272",
                "distance": 14.370683549122303
            }
        ]
    },
    "20450": {
        "name": "Santiago Amoltepec",
        "state": "Oaxaca",
        "code": "20450",
        "lat": 16.631558863464154,
        "lon": -97.5208461840147,
        "hasSupercharger": false,
        "edges": [
            {
                "fromMuniCode": "20450",
                "toMuniCode": "20466",
                "distance": 13.409666411715554
            },
            {
                "fromMuniCode": "20450",
                "toMuniCode": "20448",
                "distance": 10.737830064913236
            }
        ]
    },
    "20268": {
        "name": "San Miguel Ejutla",
        "state": "Oaxaca",
        "code": "20268",
        "lat": 16.596192706389918,
        "lon": -96.73660538756548,
        "hasSupercharger": false,
        "edges": [
            {
                "fromMuniCode": "20268",
                "toMuniCode": "20028",
                "distance": 0.34609083691169645
            },
            {
                "fromMuniCode": "20268",
                "toMuniCode": "20542",
                "distance": 2.7661042660504283
            }
        ]
    },
    "29029": {
        "name": "Tepeyanco",
        "state": "Tlaxcala",
        "code": "29029",
        "lat": 19.24712968174265,
        "lon": -98.22838916172621,
        "hasSupercharger": false,
        "edges": [
            {
                "fromMuniCode": "29029",
                "toMuniCode": "29051",
                "distance": 2.333278954751949
            },
            {
                "fromMuniCode": "29029",
                "toMuniCode": "29060",
                "distance": 1.774073165102965
            }
        ]
    },
    "13008": {
        "name": "Apan",
        "state": "Hidalgo",
        "code": "13008",
        "lat": 19.72290195563108,
        "lon": -98.44700185315382,
        "hasSupercharger": false,
        "edges": []
    },
    "07093": {
        "name": "Tenejapa",
        "state": "Chiapas",
        "code": "07093",
        "lat": 16.83318376922754,
        "lon": -92.47200594189233,
        "hasSupercharger": false,
        "edges": [
            {
                "fromMuniCode": "07093",
                "toMuniCode": "07056",
                "distance": 6.676005901485432
            },
            {
                "fromMuniCode": "07093",
                "toMuniCode": "07112",
                "distance": 8.552032859392922
            }
        ]
    },
    "24020": {
        "name": "Matehuala",
        "state": "San Luis Potos\u00ed",
        "code": "24020",
        "lat": 23.513364189949975,
        "lon": -100.58726849220606,
        "hasSupercharger": true,
        "edges": [
            {
                "fromMuniCode": "24020",
                "toMuniCode": "24007",
                "distance": 29.332286799027496
            }
        ]
    },
    "25002": {
        "name": "Angostura",
        "state": "Sinaloa",
        "code": "25002",
        "lat": 25.146041871154434,
        "lon": -108.14174304870205,
        "hasSupercharger": false,
        "edges": []
    },
    "21157": {
        "name": "Tehuitzingo",
        "state": "Puebla",
        "code": "21157",
        "lat": 18.35319161490418,
        "lon": -98.30395444564506,
        "hasSupercharger": false,
        "edges": [
            {
                "fromMuniCode": "21157",
                "toMuniCode": "21009",
                "distance": 11.215664814468614
            },
            {
                "fromMuniCode": "21157",
                "toMuniCode": "21042",
                "distance": 9.8831152793205
            }
        ]
    },
    "29060": {
        "name": "Santa Isabel Xiloxoxtla",
        "state": "Tlaxcala",
        "code": "29060",
        "lat": 19.26246142012008,
        "lon": -98.20657941354828,
        "hasSupercharger": false,
        "edges": [
            {
                "fromMuniCode": "29060",
                "toMuniCode": "29029",
                "distance": 1.774073165102965
            },
            {
                "fromMuniCode": "29060",
                "toMuniCode": "29010",
                "distance": 5.40375312990087
            }
        ]
    },
    "14017": {
        "name": "Ayutla",
        "state": "Jalisco",
        "code": "14017",
        "lat": 20.050254171976945,
        "lon": -104.43482074114367,
        "hasSupercharger": false,
        "edges": [
            {
                "fromMuniCode": "14017",
                "toMuniCode": "14110",
                "distance": 12.28699618828142
            }
        ]
    },
    "31104": {
        "name": "Yaxcab\u00e1",
        "state": "Yucat\u00e1n",
        "code": "31104",
        "lat": 20.480641448447276,
        "lon": -88.76971245675239,
        "hasSupercharger": false,
        "edges": []
    },
    "31028": {
        "name": "Dzilam de Bravo",
        "state": "Yucat\u00e1n",
        "code": "31028",
        "lat": 21.433522009737924,
        "lon": -88.66851577993373,
        "hasSupercharger": false,
        "edges": [
            {
                "fromMuniCode": "31028",
                "toMuniCode": "31006",
                "distance": 14.684427330802787
            }
        ]
    },
    "07015": {
        "name": "Cacahoat\u00e1n",
        "state": "Chiapas",
        "code": "07015",
        "lat": 15.086238232563494,
        "lon": -92.16413618767635,
        "hasSupercharger": false,
        "edges": []
    },
    "20301": {
        "name": "San Pedro Ap\u00f3stol",
        "state": "Oaxaca",
        "code": "20301",
        "lat": 16.74126675362341,
        "lon": -96.73403569682525,
        "hasSupercharger": false,
        "edges": []
    },
    "31053": {
        "name": "Muna",
        "state": "Yucat\u00e1n",
        "code": "31053",
        "lat": 20.453293296651793,
        "lon": -89.73825407133987,
        "hasSupercharger": false,
        "edges": [
            {
                "fromMuniCode": "31053",
                "toMuniCode": "04013",
                "distance": 21.011234053691872
            }
        ]
    },
    "20126": {
        "name": "San Crist\u00f3bal Amatl\u00e1n",
        "state": "Oaxaca",
        "code": "20126",
        "lat": 16.307320430835368,
        "lon": -96.38300664871466,
        "hasSupercharger": false,
        "edges": [
            {
                "fromMuniCode": "20126",
                "toMuniCode": "20154",
                "distance": 4.852873567551632
            },
            {
                "fromMuniCode": "20126",
                "toMuniCode": "20074",
                "distance": 7.479915357010893
            }
        ]
    },
    "30010": {
        "name": "Altotonga",
        "state": "Veracruz de Ignacio de la Llave",
        "code": "30010",
        "lat": 19.776278772546192,
        "lon": -97.12732645840993,
        "hasSupercharger": false,
        "edges": []
    },
    "28039": {
        "name": "Tula",
        "state": "Tamaulipas",
        "code": "28039",
        "lat": 22.939892927632467,
        "lon": -99.77626212299309,
        "hasSupercharger": false,
        "edges": [
            {
                "fromMuniCode": "28039",
                "toMuniCode": "28031",
                "distance": 26.56839758751907
            }
        ]
    },
    "15072": {
        "name": "Ray\u00f3n",
        "state": "M\u00e9xico",
        "code": "15072",
        "lat": 19.138875455536457,
        "lon": -99.56706686846229,
        "hasSupercharger": false,
        "edges": [
            {
                "fromMuniCode": "15072",
                "toMuniCode": "15018",
                "distance": 5.3037959819270775
            },
            {
                "fromMuniCode": "15072",
                "toMuniCode": "15098",
                "distance": 4.010154138721458
            },
            {
                "fromMuniCode": "15072",
                "toMuniCode": "15027",
                "distance": 4.8018942423643445
            }
        ]
    },
    "30153": {
        "name": "Tancoco",
        "state": "Veracruz de Ignacio de la Llave",
        "code": "30153",
        "lat": 21.262961002038157,
        "lon": -97.77893757363054,
        "hasSupercharger": false,
        "edges": []
    },
    "07099": {
        "name": "La Trinitaria",
        "state": "Chiapas",
        "code": "07099",
        "lat": 16.024443722092542,
        "lon": -91.89939981162183,
        "hasSupercharger": false,
        "edges": []
    },
    "21185": {
        "name": "Tlapanal\u00e1",
        "state": "Puebla",
        "code": "21185",
        "lat": 18.689969591913627,
        "lon": -98.53619541709114,
        "hasSupercharger": false,
        "edges": [
            {
                "fromMuniCode": "21185",
                "toMuniCode": "21176",
                "distance": 5.242934635804052
            },
            {
                "fromMuniCode": "21185",
                "toMuniCode": "21165",
                "distance": 7.207285457889707
            }
        ]
    },
    "20324": {
        "name": "San Pedro Pochutla",
        "state": "Oaxaca",
        "code": "20324",
        "lat": 15.789063333238659,
        "lon": -96.41289769254574,
        "hasSupercharger": false,
        "edges": [
            {
                "fromMuniCode": "20324",
                "toMuniCode": "20509",
                "distance": 15.046543705472418
            }
        ]
    },
    "20100": {
        "name": "San Andr\u00e9s Ya\u00e1",
        "state": "Oaxaca",
        "code": "20100",
        "lat": 17.290316612872367,
        "lon": -96.13238604792244,
        "hasSupercharger": false,
        "edges": [
            {
                "fromMuniCode": "20100",
                "toMuniCode": "20128",
                "distance": 5.071112887375783
            }
        ]
    },
    "20400": {
        "name": "Santa Mar\u00eda Camotl\u00e1n",
        "state": "Oaxaca",
        "code": "20400",
        "lat": 17.869617846346234,
        "lon": -97.64995399436611,
        "hasSupercharger": false,
        "edges": []
    },
    "11004": {
        "name": "Apaseo el Alto",
        "state": "Guanajuato",
        "code": "11004",
        "lat": 20.421840149101275,
        "lon": -100.57351733506353,
        "hasSupercharger": false,
        "edges": [
            {
                "fromMuniCode": "11004",
                "toMuniCode": "11005",
                "distance": 11.069155762894187
            }
        ]
    },
    "05032": {
        "name": "San Juan de Sabinas",
        "state": "Coahuila de Zaragoza",
        "code": "05032",
        "lat": 28.063956317464307,
        "lon": -101.38975798339425,
        "hasSupercharger": false,
        "edges": [
            {
                "fromMuniCode": "05032",
                "toMuniCode": "05028",
                "distance": 17.938784806978063
            },
            {
                "fromMuniCode": "05032",
                "toMuniCode": "05003",
                "distance": 32.44264791969599
            }
        ]
    },
    "21179": {
        "name": "Tlachichuca",
        "state": "Puebla",
        "code": "21179",
        "lat": 19.133614450814644,
        "lon": -97.3521173202716,
        "hasSupercharger": false,
        "edges": []
    },
    "26061": {
        "name": "Soyopa",
        "state": "Sonora",
        "code": "26061",
        "lat": 28.78977480666206,
        "lon": -109.61169086691734,
        "hasSupercharger": false,
        "edges": [
            {
                "fromMuniCode": "26061",
                "toMuniCode": "26052",
                "distance": 40.345922047445654
            }
        ]
    },
    "15014": {
        "name": "Atlacomulco",
        "state": "M\u00e9xico",
        "code": "15014",
        "lat": 19.80985300440465,
        "lon": -99.8458162686629,
        "hasSupercharger": false,
        "edges": [
            {
                "fromMuniCode": "15014",
                "toMuniCode": "15001",
                "distance": 11.393930896487603
            }
        ]
    },
    "18001": {
        "name": "Acaponeta",
        "state": "Nayarit",
        "code": "18001",
        "lat": 22.46483682095224,
        "lon": -105.25895679099176,
        "hasSupercharger": false,
        "edges": [
            {
                "fromMuniCode": "18001",
                "toMuniCode": "25009",
                "distance": 32.59929426346288
            },
            {
                "fromMuniCode": "18001",
                "toMuniCode": "18011",
                "distance": 37.8331653036649
            }
        ]
    },
    "13013": {
        "name": "Atotonilco de Tula",
        "state": "Hidalgo",
        "code": "13013",
        "lat": 19.973440691164246,
        "lon": -99.23137873361661,
        "hasSupercharger": false,
        "edges": []
    },
    "14029": {
        "name": "Cuqu\u00edo",
        "state": "Jalisco",
        "code": "14029",
        "lat": 20.952400694711585,
        "lon": -103.02871919217974,
        "hasSupercharger": false,
        "edges": [
            {
                "fromMuniCode": "14029",
                "toMuniCode": "14093",
                "distance": 22.03520190265731
            }
        ]
    },
    "16104": {
        "name": "Villamar",
        "state": "Michoac\u00e1n de Ocampo",
        "code": "16104",
        "lat": 19.993763388659964,
        "lon": -102.58639952934834,
        "hasSupercharger": false,
        "edges": []
    },
    "29013": {
        "name": "Huamantla",
        "state": "Tlaxcala",
        "code": "29013",
        "lat": 19.33244260335883,
        "lon": -97.93643346950574,
        "hasSupercharger": false,
        "edges": []
    },
    "20380": {
        "name": "Santa Cruz Papalutla",
        "state": "Oaxaca",
        "code": "20380",
        "lat": 16.95250362907984,
        "lon": -96.58383070281232,
        "hasSupercharger": false,
        "edges": [
            {
                "fromMuniCode": "20380",
                "toMuniCode": "20118",
                "distance": 6.747783262865141
            },
            {
                "fromMuniCode": "20380",
                "toMuniCode": "20145",
                "distance": 5.164016009849584
            },
            {
                "fromMuniCode": "20380",
                "toMuniCode": "20411",
                "distance": 3.3806228793348594
            },
            {
                "fromMuniCode": "20380",
                "toMuniCode": "20349",
                "distance": 3.278924556129437
            }
        ]
    },
    "07107": {
        "name": "Villa Corzo",
        "state": "Chiapas",
        "code": "07107",
        "lat": 16.07734605597285,
        "lon": -93.23025758313885,
        "hasSupercharger": false,
        "edges": []
    },
    "05023": {
        "name": "Ocampo",
        "state": "Coahuila de Zaragoza",
        "code": "05023",
        "lat": 27.96561828163739,
        "lon": -102.89288887879685,
        "hasSupercharger": false,
        "edges": []
    },
    "02007": {
        "name": "San Felipe",
        "state": "Baja California",
        "code": "02007",
        "lat": 30.685278817109417,
        "lon": -114.8915414336911,
        "hasSupercharger": false,
        "edges": [
            {
                "fromMuniCode": "02007",
                "toMuniCode": "02001",
                "distance": 89.9296511510803
            },
            {
                "fromMuniCode": "02007",
                "toMuniCode": "02006",
                "distance": 92.64712847808835
            }
        ]
    },
    "26070": {
        "name": "General Plutarco El\u00edas Calles",
        "state": "Sonora",
        "code": "26070",
        "lat": 31.719989709200817,
        "lon": -112.90828758418422,
        "hasSupercharger": false,
        "edges": []
    },
    "30018": {
        "name": "Aquila",
        "state": "Veracruz de Ignacio de la Llave",
        "code": "30018",
        "lat": 18.78889549342352,
        "lon": -97.32424827771906,
        "hasSupercharger": false,
        "edges": [
            {
                "fromMuniCode": "30018",
                "toMuniCode": "30006",
                "distance": 5.921960263498156
            }
        ]
    },
    "05028": {
        "name": "Sabinas",
        "state": "Coahuila de Zaragoza",
        "code": "05028",
        "lat": 27.922871853964306,
        "lon": -101.14300063774526,
        "hasSupercharger": false,
        "edges": [
            {
                "fromMuniCode": "05028",
                "toMuniCode": "05032",
                "distance": 17.938784806978063
            },
            {
                "fromMuniCode": "05028",
                "toMuniCode": "05026",
                "distance": 35.443323654971145
            },
            {
                "fromMuniCode": "05028",
                "toMuniCode": "05003",
                "distance": 28.195628999933202
            }
        ]
    },
    "19019": {
        "name": "San Pedro Garza Garc\u00eda",
        "state": "Nuevo Le\u00f3n",
        "code": "19019",
        "lat": 25.64459720184871,
        "lon": -100.37475465500528,
        "hasSupercharger": true,
        "edges": [
            {
                "fromMuniCode": "19019",
                "toMuniCode": "19048",
                "distance": 8.344184346131405
            },
            {
                "fromMuniCode": "19019",
                "toMuniCode": "19006",
                "distance": 15.512618159476787
            }
        ]
    },
    "14054": {
        "name": "El Lim\u00f3n",
        "state": "Jalisco",
        "code": "14054",
        "lat": 19.84079580383168,
        "lon": -104.10032120086927,
        "hasSupercharger": false,
        "edges": [
            {
                "fromMuniCode": "14054",
                "toMuniCode": "14034",
                "distance": 5.096436490386169
            },
            {
                "fromMuniCode": "14054",
                "toMuniCode": "14037",
                "distance": 6.747690699309459
            },
            {
                "fromMuniCode": "14054",
                "toMuniCode": "14110",
                "distance": 14.573809795397567
            },
            {
                "fromMuniCode": "14054",
                "toMuniCode": "14099",
                "distance": 22.75648724054771
            }
        ]
    },
    "20410": {
        "name": "Santa Mar\u00eda Ecatepec",
        "state": "Oaxaca",
        "code": "20410",
        "lat": 16.233361195574314,
        "lon": -95.8650588073395,
        "hasSupercharger": false,
        "edges": [
            {
                "fromMuniCode": "20410",
                "toMuniCode": "20125",
                "distance": 14.091060337942817
            },
            {
                "fromMuniCode": "20410",
                "toMuniCode": "20428",
                "distance": 13.33608125444593
            },
            {
                "fromMuniCode": "20410",
                "toMuniCode": "20122",
                "distance": 13.92004864786545
            }
        ]
    },
    "26007": {
        "name": "Atil",
        "state": "Sonora",
        "code": "26007",
        "lat": 30.816014709996786,
        "lon": -111.54490339704971,
        "hasSupercharger": false,
        "edges": [
            {
                "fromMuniCode": "26007",
                "toMuniCode": "26060",
                "distance": 32.6332828901018
            }
        ]
    },
    "05003": {
        "name": "Allende",
        "state": "Coahuila de Zaragoza",
        "code": "05003",
        "lat": 28.278347460460065,
        "lon": -100.91600340779499,
        "hasSupercharger": false,
        "edges": [
            {
                "fromMuniCode": "05003",
                "toMuniCode": "05032",
                "distance": 32.44264791969599
            },
            {
                "fromMuniCode": "05003",
                "toMuniCode": "05028",
                "distance": 28.195628999933202
            }
        ]
    },
    "19032": {
        "name": "Lampazos de Naranjo",
        "state": "Nuevo Le\u00f3n",
        "code": "19032",
        "lat": 27.050841481818026,
        "lon": -100.41821568916804,
        "hasSupercharger": false,
        "edges": [
            {
                "fromMuniCode": "19032",
                "toMuniCode": "05005",
                "distance": 27.18325640473447
            },
            {
                "fromMuniCode": "19032",
                "toMuniCode": "19008",
                "distance": 34.27561680413144
            }
        ]
    },
    "21056": {
        "name": "Chila de la Sal",
        "state": "Puebla",
        "code": "21056",
        "lat": 18.139551987131025,
        "lon": -98.47000994442817,
        "hasSupercharger": false,
        "edges": [
            {
                "fromMuniCode": "21056",
                "toMuniCode": "21011",
                "distance": 10.244869071667436
            },
            {
                "fromMuniCode": "21056",
                "toMuniCode": "21155",
                "distance": 11.850776088842087
            },
            {
                "fromMuniCode": "21056",
                "toMuniCode": "21047",
                "distance": 12.77047612758633
            }
        ]
    },
    "30012": {
        "name": "Amatitl\u00e1n",
        "state": "Veracruz de Ignacio de la Llave",
        "code": "30012",
        "lat": 18.432959696075756,
        "lon": -95.68972515439793,
        "hasSupercharger": false,
        "edges": [
            {
                "fromMuniCode": "30012",
                "toMuniCode": "30005",
                "distance": 11.229638946481723
            }
        ]
    },
    "16085": {
        "name": "Tanganc\u00edcuaro",
        "state": "Michoac\u00e1n de Ocampo",
        "code": "16085",
        "lat": 19.872599743033252,
        "lon": -102.24868424353355,
        "hasSupercharger": false,
        "edges": []
    },
    "20430": {
        "name": "Santa Mar\u00eda Tataltepec",
        "state": "Oaxaca",
        "code": "20430",
        "lat": 17.137519162057558,
        "lon": -97.39525947734683,
        "hasSupercharger": false,
        "edges": []
    },
    "20202": {
        "name": "San Juan Lachao",
        "state": "Oaxaca",
        "code": "20202",
        "lat": 16.209288495370718,
        "lon": -97.11697429900757,
        "hasSupercharger": false,
        "edges": []
    },
    "15107": {
        "name": "Tonatico",
        "state": "M\u00e9xico",
        "code": "15107",
        "lat": 18.780904492473557,
        "lon": -99.63756091046358,
        "hasSupercharger": false,
        "edges": [
            {
                "fromMuniCode": "15107",
                "toMuniCode": "12049",
                "distance": 5.644453928397229
            },
            {
                "fromMuniCode": "15107",
                "toMuniCode": "15040",
                "distance": 5.95115662410428
            },
            {
                "fromMuniCode": "15107",
                "toMuniCode": "12060",
                "distance": 9.397301366506477
            }
        ]
    },
    "08052": {
        "name": "Ojinaga",
        "state": "Chihuahua",
        "code": "08052",
        "lat": 29.364220747580138,
        "lon": -104.52529631878407,
        "hasSupercharger": false,
        "edges": [
            {
                "fromMuniCode": "08052",
                "toMuniCode": "08015",
                "distance": 49.19422932831902
            },
            {
                "fromMuniCode": "08052",
                "toMuniCode": "08042",
                "distance": 51.89894595806703
            }
        ]
    },
    "21204": {
        "name": "Yaon\u00e1huac",
        "state": "Puebla",
        "code": "21204",
        "lat": 19.919619939353,
        "lon": -97.44247480649024,
        "hasSupercharger": false,
        "edges": [
            {
                "fromMuniCode": "21204",
                "toMuniCode": "21017",
                "distance": 7.460386797427907
            },
            {
                "fromMuniCode": "21204",
                "toMuniCode": "21043",
                "distance": 8.386155603297201
            }
        ]
    },
    "20411": {
        "name": "Santa Mar\u00eda Guelac\u00e9",
        "state": "Oaxaca",
        "code": "20411",
        "lat": 16.992834388204102,
        "lon": -96.61277516837451,
        "hasSupercharger": false,
        "edges": [
            {
                "fromMuniCode": "20411",
                "toMuniCode": "20145",
                "distance": 2.572745459035774
            },
            {
                "fromMuniCode": "20411",
                "toMuniCode": "20349",
                "distance": 3.1488125640002362
            },
            {
                "fromMuniCode": "20411",
                "toMuniCode": "20380",
                "distance": 3.3806228793348594
            }
        ]
    },
    "21015": {
        "name": "Amozoc",
        "state": "Puebla",
        "code": "21015",
        "lat": 19.048318425253253,
        "lon": -98.0549945733324,
        "hasSupercharger": false,
        "edges": []
    },
    "20058": {
        "name": "Mazatl\u00e1n Villa de Flores",
        "state": "Oaxaca",
        "code": "20058",
        "lat": 18.029364771381672,
        "lon": -96.91094820030158,
        "hasSupercharger": false,
        "edges": [
            {
                "fromMuniCode": "20058",
                "toMuniCode": "20206",
                "distance": 8.49350650226005
            }
        ]
    },
    "30138": {
        "name": "R\u00edo Blanco",
        "state": "Veracruz de Ignacio de la Llave",
        "code": "30138",
        "lat": 18.844492399619533,
        "lon": -97.15092069830676,
        "hasSupercharger": false,
        "edges": [
            {
                "fromMuniCode": "30138",
                "toMuniCode": "30118",
                "distance": 3.1162579812035616
            },
            {
                "fromMuniCode": "30138",
                "toMuniCode": "30074",
                "distance": 2.2111452068003508
            }
        ]
    },
    "15045": {
        "name": "Jilotepec",
        "state": "M\u00e9xico",
        "code": "15045",
        "lat": 20.019105159147898,
        "lon": -99.59657059528271,
        "hasSupercharger": false,
        "edges": [
            {
                "fromMuniCode": "15045",
                "toMuniCode": "13076",
                "distance": 14.607161371130356
            }
        ]
    },
    "30058": {
        "name": "Chicontepec",
        "state": "Veracruz de Ignacio de la Llave",
        "code": "30058",
        "lat": 21.003257473341666,
        "lon": -98.04061994397856,
        "hasSupercharger": false,
        "edges": []
    },
    "08056": {
        "name": "Rosario",
        "state": "Chihuahua",
        "code": "08056",
        "lat": 27.268899779149617,
        "lon": -106.31468565149586,
        "hasSupercharger": false,
        "edges": [
            {
                "fromMuniCode": "08056",
                "toMuniCode": "08059",
                "distance": 34.884994484087834
            }
        ]
    },
    "18006": {
        "name": "Ixtl\u00e1n del R\u00edo",
        "state": "Nayarit",
        "code": "18006",
        "lat": 21.033429371795307,
        "lon": -104.30695813553059,
        "hasSupercharger": false,
        "edges": [
            {
                "fromMuniCode": "18006",
                "toMuniCode": "18002",
                "distance": 17.383961871270106
            },
            {
                "fromMuniCode": "18006",
                "toMuniCode": "14040",
                "distance": 15.026590790476812
            }
        ]
    },
    "20235": {
        "name": "San Luis Amatl\u00e1n",
        "state": "Oaxaca",
        "code": "20235",
        "lat": 16.45326636455982,
        "lon": -96.47893107086362,
        "hasSupercharger": false,
        "edges": [
            {
                "fromMuniCode": "20235",
                "toMuniCode": "20449",
                "distance": 10.25411160048141
            }
        ]
    },
    "28022": {
        "name": "Matamoros",
        "state": "Tamaulipas",
        "code": "28022",
        "lat": 25.611891854448018,
        "lon": -97.5324806830048,
        "hasSupercharger": false,
        "edges": []
    },
    "20508": {
        "name": "Santo Domingo Chihuit\u00e1n",
        "state": "Oaxaca",
        "code": "20508",
        "lat": 16.62998010334933,
        "lon": -95.17369415795953,
        "hasSupercharger": false,
        "edges": []
    },
    "23008": {
        "name": "Solidaridad",
        "state": "Quintana Roo",
        "code": "23008",
        "lat": 20.582055565132272,
        "lon": -87.39975989737242,
        "hasSupercharger": false,
        "edges": []
    },
    "22013": {
        "name": "Pe\u00f1amiller",
        "state": "Quer\u00e9taro",
        "code": "22013",
        "lat": 21.09766831598637,
        "lon": -99.82994974705369,
        "hasSupercharger": false,
        "edges": [
            {
                "fromMuniCode": "22013",
                "toMuniCode": "11034",
                "distance": 16.021623197774208
            },
            {
                "fromMuniCode": "22013",
                "toMuniCode": "22015",
                "distance": 21.467954889165714
            }
        ]
    },
    "21128": {
        "name": "San Jos\u00e9 Chiapa",
        "state": "Puebla",
        "code": "21128",
        "lat": 19.254674716008164,
        "lon": -97.72857001174879,
        "hasSupercharger": false,
        "edges": [
            {
                "fromMuniCode": "21128",
                "toMuniCode": "21096",
                "distance": 7.543692757813468
            },
            {
                "fromMuniCode": "21128",
                "toMuniCode": "29007",
                "distance": 6.624037758131138
            }
        ]
    },
    "11014": {
        "name": "Dolores Hidalgo Cuna de la Independencia Nacional",
        "state": "Guanajuato",
        "code": "11014",
        "lat": 21.14701687539865,
        "lon": -100.93477588858791,
        "hasSupercharger": false,
        "edges": []
    },
    "26072": {
        "name": "San Ignacio R\u00edo Muerto",
        "state": "Sonora",
        "code": "26072",
        "lat": 27.35985946682992,
        "lon": -110.33914255629222,
        "hasSupercharger": false,
        "edges": []
    },
    "21119": {
        "name": "San Andr\u00e9s Cholula",
        "state": "Puebla",
        "code": "21119",
        "lat": 19.02414839103873,
        "lon": -98.28974846253345,
        "hasSupercharger": false,
        "edges": []
    },
    "31077": {
        "name": "Tekal de Venegas",
        "state": "Yucat\u00e1n",
        "code": "31077",
        "lat": 21.021933920996442,
        "lon": -88.84828892576596,
        "hasSupercharger": false,
        "edges": []
    },
    "21011": {
        "name": "Albino Zertuche",
        "state": "Puebla",
        "code": "21011",
        "lat": 18.010690459585575,
        "lon": -98.54710168921423,
        "hasSupercharger": false,
        "edges": [
            {
                "fromMuniCode": "21011",
                "toMuniCode": "21056",
                "distance": 10.244869071667436
            }
        ]
    },
    "07056": {
        "name": "Mitontic",
        "state": "Chiapas",
        "code": "07056",
        "lat": 16.874812398219007,
        "lon": -92.56309102703551,
        "hasSupercharger": false,
        "edges": [
            {
                "fromMuniCode": "07056",
                "toMuniCode": "07093",
                "distance": 6.676005901485432
            },
            {
                "fromMuniCode": "07056",
                "toMuniCode": "07119",
                "distance": 11.675384474330967
            }
        ]
    },
    "31008": {
        "name": "Calotmul",
        "state": "Yucat\u00e1n",
        "code": "31008",
        "lat": 21.014119079927468,
        "lon": -88.12444884310723,
        "hasSupercharger": false,
        "edges": []
    },
    "30059": {
        "name": "Chinameca",
        "state": "Veracruz de Ignacio de la Llave",
        "code": "30059",
        "lat": 18.05296071893292,
        "lon": -94.69893240379912,
        "hasSupercharger": false,
        "edges": [
            {
                "fromMuniCode": "30059",
                "toMuniCode": "30048",
                "distance": 8.966184330736478
            }
        ]
    },
    "32029": {
        "name": "Miguel Auza",
        "state": "Zacatecas",
        "code": "32029",
        "lat": 24.11737382931744,
        "lon": -103.48837895813236,
        "hasSupercharger": false,
        "edges": []
    },
    "20425": {
        "name": "Santa Mar\u00eda P\u00e1palo",
        "state": "Oaxaca",
        "code": "20425",
        "lat": 17.80729042013138,
        "lon": -96.7837848247158,
        "hasSupercharger": false,
        "edges": []
    },
    "15027": {
        "name": "Chapultepec",
        "state": "M\u00e9xico",
        "code": "15027",
        "lat": 19.20648898299962,
        "lon": -99.55011366751735,
        "hasSupercharger": false,
        "edges": [
            {
                "fromMuniCode": "15027",
                "toMuniCode": "15076",
                "distance": 4.347002213955902
            },
            {
                "fromMuniCode": "15027",
                "toMuniCode": "15072",
                "distance": 4.8018942423643445
            }
        ]
    },
    "13075": {
        "name": "Tolcayuca",
        "state": "Hidalgo",
        "code": "13075",
        "lat": 19.95495113276354,
        "lon": -98.92334651551188,
        "hasSupercharger": false,
        "edges": []
    },
    "30095": {
        "name": "Juchique de Ferrer",
        "state": "Veracruz de Ignacio de la Llave",
        "code": "30095",
        "lat": 19.81894724144654,
        "lon": -96.66163480676174,
        "hasSupercharger": false,
        "edges": [
            {
                "fromMuniCode": "30095",
                "toMuniCode": "30197",
                "distance": 7.541851069485486
            },
            {
                "fromMuniCode": "30095",
                "toMuniCode": "30042",
                "distance": 8.408470681954098
            }
        ]
    },
    "20157": {
        "name": "San Jacinto Amilpas",
        "state": "Oaxaca",
        "code": "20157",
        "lat": 17.095387295785017,
        "lon": -96.75743720378918,
        "hasSupercharger": false,
        "edges": []
    },
    "16042": {
        "name": "Ixtl\u00e1n",
        "state": "Michoac\u00e1n de Ocampo",
        "code": "16042",
        "lat": 20.151364185127292,
        "lon": -102.40572270381821,
        "hasSupercharger": false,
        "edges": []
    },
    "14013": {
        "name": "Atotonilco el Alto",
        "state": "Jalisco",
        "code": "14013",
        "lat": 20.547563832556634,
        "lon": -102.53961176689208,
        "hasSupercharger": false,
        "edges": [
            {
                "fromMuniCode": "14013",
                "toMuniCode": "14093",
                "distance": 21.873901186617342
            },
            {
                "fromMuniCode": "14013",
                "toMuniCode": "14105",
                "distance": 13.531673994496062
            },
            {
                "fromMuniCode": "14013",
                "toMuniCode": "14063",
                "distance": 15.818357709430757
            }
        ]
    },
    "13035": {
        "name": "Metepec",
        "state": "Hidalgo",
        "code": "13035",
        "lat": 20.25781423374971,
        "lon": -98.34291933584151,
        "hasSupercharger": false,
        "edges": []
    },
    "20232": {
        "name": "San Lucas Ojitl\u00e1n",
        "state": "Oaxaca",
        "code": "20232",
        "lat": 18.034237006375093,
        "lon": -96.36251733903786,
        "hasSupercharger": false,
        "edges": []
    },
    "19037": {
        "name": "Mina",
        "state": "Nuevo Le\u00f3n",
        "code": "19037",
        "lat": 26.2855835436731,
        "lon": -100.7862769602061,
        "hasSupercharger": false,
        "edges": [
            {
                "fromMuniCode": "19037",
                "toMuniCode": "19008",
                "distance": 24.165953603472335
            },
            {
                "fromMuniCode": "19037",
                "toMuniCode": "19051",
                "distance": 29.96627101030145
            }
        ]
    },
    "26058": {
        "name": "Santa Ana",
        "state": "Sonora",
        "code": "26058",
        "lat": 30.451641200056862,
        "lon": -111.05898783407885,
        "hasSupercharger": true,
        "edges": []
    },
    "07043": {
        "name": "Ixtacomit\u00e1n",
        "state": "Chiapas",
        "code": "07043",
        "lat": 17.421397366977722,
        "lon": -93.09902654762112,
        "hasSupercharger": false,
        "edges": [
            {
                "fromMuniCode": "07043",
                "toMuniCode": "07084",
                "distance": 6.653315549741729
            }
        ]
    },
    "05033": {
        "name": "San Pedro",
        "state": "Coahuila de Zaragoza",
        "code": "05033",
        "lat": 26.08404215969089,
        "lon": -102.71799728022538,
        "hasSupercharger": false,
        "edges": [
            {
                "fromMuniCode": "05033",
                "toMuniCode": "05017",
                "distance": 47.62940608551627
            }
        ]
    },
    "13081": {
        "name": "Zacualtip\u00e1n de \u00c1ngeles",
        "state": "Hidalgo",
        "code": "13081",
        "lat": 20.650745645309197,
        "lon": -98.58671885467274,
        "hasSupercharger": false,
        "edges": [
            {
                "fromMuniCode": "13081",
                "toMuniCode": "30076",
                "distance": 13.735626266870105
            }
        ]
    },
    "24058": {
        "name": "El Naranjo",
        "state": "San Luis Potos\u00ed",
        "code": "24058",
        "lat": 22.49010752166514,
        "lon": -99.365991785284,
        "hasSupercharger": false,
        "edges": [
            {
                "fromMuniCode": "24058",
                "toMuniCode": "28029",
                "distance": 23.554002572804656
            }
        ]
    },
    "07100": {
        "name": "Tumbal\u00e1",
        "state": "Chiapas",
        "code": "07100",
        "lat": 17.30079258732388,
        "lon": -92.26962530985658,
        "hasSupercharger": false,
        "edges": [
            {
                "fromMuniCode": "07100",
                "toMuniCode": "07096",
                "distance": 15.256529488769683
            }
        ]
    },
    "20173": {
        "name": "San Juan Atepec",
        "state": "Oaxaca",
        "code": "20173",
        "lat": 17.464113004235884,
        "lon": -96.48837114528803,
        "hasSupercharger": false,
        "edges": []
    },
    "20107": {
        "name": "San Antonio de la Cal",
        "state": "Oaxaca",
        "code": "20107",
        "lat": 17.024111281654324,
        "lon": -96.69181931385617,
        "hasSupercharger": false,
        "edges": [
            {
                "fromMuniCode": "20107",
                "toMuniCode": "20350",
                "distance": 1.6686633977842165
            },
            {
                "fromMuniCode": "20107",
                "toMuniCode": "20390",
                "distance": 2.8252573416902513
            },
            {
                "fromMuniCode": "20107",
                "toMuniCode": "20375",
                "distance": 1.749140677583742
            }
        ]
    },
    "20569": {
        "name": "Santa In\u00e9s de Zaragoza",
        "state": "Oaxaca",
        "code": "20569",
        "lat": 17.274887772347835,
        "lon": -97.14139956749938,
        "hasSupercharger": false,
        "edges": []
    },
    "24029": {
        "name": "San Mart\u00edn Chalchicuautla",
        "state": "San Luis Potos\u00ed",
        "code": "24029",
        "lat": 21.39978494586542,
        "lon": -98.61950327388722,
        "hasSupercharger": false,
        "edges": [
            {
                "fromMuniCode": "24029",
                "toMuniCode": "30056",
                "distance": 14.067963619512335
            },
            {
                "fromMuniCode": "24029",
                "toMuniCode": "24039",
                "distance": 14.454245114882394
            }
        ]
    },
    "08048": {
        "name": "Namiquipa",
        "state": "Chihuahua",
        "code": "08048",
        "lat": 29.29526004848689,
        "lon": -107.14038436260664,
        "hasSupercharger": false,
        "edges": [
            {
                "fromMuniCode": "08048",
                "toMuniCode": "08006",
                "distance": 31.569317478105997
            }
        ]
    },
    "19030": {
        "name": "Iturbide",
        "state": "Nuevo Le\u00f3n",
        "code": "19030",
        "lat": 24.638421485069028,
        "lon": -99.8487180456555,
        "hasSupercharger": false,
        "edges": [
            {
                "fromMuniCode": "19030",
                "toMuniCode": "28020",
                "distance": 18.19911112174099
            },
            {
                "fromMuniCode": "19030",
                "toMuniCode": "19007",
                "distance": 28.661457239340727
            },
            {
                "fromMuniCode": "19030",
                "toMuniCode": "19017",
                "distance": 35.15573909145453
            }
        ]
    },
    "20265": {
        "name": "San Miguel Chimalapa",
        "state": "Oaxaca",
        "code": "20265",
        "lat": 16.652530155081145,
        "lon": -94.40985620612132,
        "hasSupercharger": false,
        "edges": [
            {
                "fromMuniCode": "20265",
                "toMuniCode": "20066",
                "distance": 14.947733565305661
            }
        ]
    },
    "20193": {
        "name": "San Juan del Estado",
        "state": "Oaxaca",
        "code": "20193",
        "lat": 17.32944445120757,
        "lon": -96.77924708769582,
        "hasSupercharger": false,
        "edges": [
            {
                "fromMuniCode": "20193",
                "toMuniCode": "20294",
                "distance": 6.371595394377366
            },
            {
                "fromMuniCode": "20193",
                "toMuniCode": "20260",
                "distance": 8.749846583268765
            }
        ]
    },
    "19049": {
        "name": "Santiago",
        "state": "Nuevo Le\u00f3n",
        "code": "19049",
        "lat": 25.384897608336647,
        "lon": -100.23732579297918,
        "hasSupercharger": false,
        "edges": [
            {
                "fromMuniCode": "19049",
                "toMuniCode": "19004",
                "distance": 14.20299778590617
            }
        ]
    },
    "12060": {
        "name": "Tetipac",
        "state": "Guerrero",
        "code": "12060",
        "lat": 18.648838762101274,
        "lon": -99.67175943957048,
        "hasSupercharger": false,
        "edges": [
            {
                "fromMuniCode": "12060",
                "toMuniCode": "15107",
                "distance": 9.397301366506477
            },
            {
                "fromMuniCode": "12060",
                "toMuniCode": "12049",
                "distance": 5.6718703580856324
            },
            {
                "fromMuniCode": "12060",
                "toMuniCode": "15040",
                "distance": 14.006269355430554
            }
        ]
    },
    "16032": {
        "name": "Erongar\u00edcuaro",
        "state": "Michoac\u00e1n de Ocampo",
        "code": "16032",
        "lat": 19.61978962798132,
        "lon": -101.72521099916503,
        "hasSupercharger": false,
        "edges": [
            {
                "fromMuniCode": "16032",
                "toMuniCode": "16100",
                "distance": 11.456837926495814
            }
        ]
    },
    "20299": {
        "name": "San Pablo Yaganiza",
        "state": "Oaxaca",
        "code": "20299",
        "lat": 17.12508598375999,
        "lon": -96.2171492005639,
        "hasSupercharger": false,
        "edges": [
            {
                "fromMuniCode": "20299",
                "toMuniCode": "20506",
                "distance": 3.7495856982109403
            },
            {
                "fromMuniCode": "20299",
                "toMuniCode": "20303",
                "distance": 3.977618440192329
            },
            {
                "fromMuniCode": "20299",
                "toMuniCode": "20138",
                "distance": 4.969116807582759
            },
            {
                "fromMuniCode": "20299",
                "toMuniCode": "20503",
                "distance": 6.737414417445363
            }
        ]
    },
    "15103": {
        "name": "Tlalmanalco",
        "state": "M\u00e9xico",
        "code": "15103",
        "lat": 19.20890281455583,
        "lon": -98.73197025558669,
        "hasSupercharger": false,
        "edges": [
            {
                "fromMuniCode": "15103",
                "toMuniCode": "15025",
                "distance": 7.2025182853915
            }
        ]
    },
    "30142": {
        "name": "San Juan Evangelista",
        "state": "Veracruz de Ignacio de la Llave",
        "code": "30142",
        "lat": 17.765978865715006,
        "lon": -95.16202467683541,
        "hasSupercharger": false,
        "edges": []
    },
    "26052": {
        "name": "Sahuaripa",
        "state": "Sonora",
        "code": "26052",
        "lat": 29.010002056484645,
        "lon": -108.99410015743985,
        "hasSupercharger": false,
        "edges": [
            {
                "fromMuniCode": "26052",
                "toMuniCode": "26061",
                "distance": 40.345922047445654
            }
        ]
    },
    "14040": {
        "name": "Hostotipaquillo",
        "state": "Jalisco",
        "code": "14040",
        "lat": 21.057464536175917,
        "lon": -104.0754093063563,
        "hasSupercharger": false,
        "edges": [
            {
                "fromMuniCode": "14040",
                "toMuniCode": "18006",
                "distance": 15.026590790476812
            }
        ]
    },
    "19017": {
        "name": "Galeana",
        "state": "Nuevo Le\u00f3n",
        "code": "19017",
        "lat": 24.760508777366756,
        "lon": -100.39228763314047,
        "hasSupercharger": false,
        "edges": [
            {
                "fromMuniCode": "19017",
                "toMuniCode": "19030",
                "distance": 35.15573909145453
            }
        ]
    },
    "20125": {
        "name": "San Carlos Yautepec",
        "state": "Oaxaca",
        "code": "20125",
        "lat": 16.41468374013223,
        "lon": -95.96223320779494,
        "hasSupercharger": false,
        "edges": [
            {
                "fromMuniCode": "20125",
                "toMuniCode": "20122",
                "distance": 2.3875541595876126
            },
            {
                "fromMuniCode": "20125",
                "toMuniCode": "20428",
                "distance": 9.658475506530191
            },
            {
                "fromMuniCode": "20125",
                "toMuniCode": "20410",
                "distance": 14.091060337942817
            }
        ]
    },
    "28023": {
        "name": "M\u00e9ndez",
        "state": "Tamaulipas",
        "code": "28023",
        "lat": 25.223759797379643,
        "lon": -98.44003695870688,
        "hasSupercharger": false,
        "edges": [
            {
                "fromMuniCode": "28023",
                "toMuniCode": "19013",
                "distance": 37.67486107812246
            }
        ]
    },
    "15043": {
        "name": "Xalatlaco",
        "state": "M\u00e9xico",
        "code": "15043",
        "lat": 19.165243797034186,
        "lon": -99.35926238101264,
        "hasSupercharger": false,
        "edges": []
    },
    "30197": {
        "name": "Yecuatla",
        "state": "Veracruz de Ignacio de la Llave",
        "code": "30197",
        "lat": 19.848169809945674,
        "lon": -96.77341105495134,
        "hasSupercharger": false,
        "edges": [
            {
                "fromMuniCode": "30197",
                "toMuniCode": "30095",
                "distance": 7.541851069485486
            },
            {
                "fromMuniCode": "30197",
                "toMuniCode": "30042",
                "distance": 7.379158416506608
            },
            {
                "fromMuniCode": "30197",
                "toMuniCode": "30109",
                "distance": 10.747293604378836
            }
        ]
    },
    "30026": {
        "name": "Banderilla",
        "state": "Veracruz de Ignacio de la Llave",
        "code": "30026",
        "lat": 19.58677621309237,
        "lon": -96.9429609799733,
        "hasSupercharger": false,
        "edges": []
    },
    "12031": {
        "name": "General Canuto A. Neri",
        "state": "Guerrero",
        "code": "12031",
        "lat": 18.441130915840567,
        "lon": -100.10417558814405,
        "hasSupercharger": false,
        "edges": [
            {
                "fromMuniCode": "12031",
                "toMuniCode": "12058",
                "distance": 13.71841688515285
            }
        ]
    },
    "20461": {
        "name": "Santiago del R\u00edo",
        "state": "Oaxaca",
        "code": "20461",
        "lat": 17.430847045167575,
        "lon": -98.10138186217638,
        "hasSupercharger": false,
        "edges": []
    },
    "29021": {
        "name": "Nanacamilpa de Mariano Arista",
        "state": "Tlaxcala",
        "code": "29021",
        "lat": 19.499825158177053,
        "lon": -98.55402382196885,
        "hasSupercharger": false,
        "edges": []
    },
    "30118": {
        "name": "Orizaba",
        "state": "Veracruz de Ignacio de la Llave",
        "code": "30118",
        "lat": 18.855863290572884,
        "lon": -97.1048124777326,
        "hasSupercharger": false,
        "edges": [
            {
                "fromMuniCode": "30118",
                "toMuniCode": "30138",
                "distance": 3.1162579812035616
            },
            {
                "fromMuniCode": "30118",
                "toMuniCode": "30074",
                "distance": 3.2436540796611277
            },
            {
                "fromMuniCode": "30118",
                "toMuniCode": "30085",
                "distance": 4.971021308222635
            }
        ]
    },
    "15038": {
        "name": "Isidro Fabela",
        "state": "M\u00e9xico",
        "code": "15038",
        "lat": 19.554241615626147,
        "lon": -99.44037834680397,
        "hasSupercharger": false,
        "edges": [
            {
                "fromMuniCode": "15038",
                "toMuniCode": "15047",
                "distance": 13.28711069446761
            }
        ]
    },
    "21037": {
        "name": "Coyotepec",
        "state": "Puebla",
        "code": "21037",
        "lat": 18.401325025201253,
        "lon": -97.81295359732178,
        "hasSupercharger": false,
        "edges": []
    },
    "14084": {
        "name": "Talpa de Allende",
        "state": "Jalisco",
        "code": "14084",
        "lat": 20.299440033444856,
        "lon": -104.95347579288664,
        "hasSupercharger": false,
        "edges": []
    },
    "14050": {
        "name": "Jocotepec",
        "state": "Jalisco",
        "code": "14050",
        "lat": 20.31450779962798,
        "lon": -103.4171752590322,
        "hasSupercharger": false,
        "edges": [
            {
                "fromMuniCode": "14050",
                "toMuniCode": "14030",
                "distance": 15.333666801173369
            },
            {
                "fromMuniCode": "14050",
                "toMuniCode": "14107",
                "distance": 16.22172368578035
            }
        ]
    },
    "30188": {
        "name": "Totutla",
        "state": "Veracruz de Ignacio de la Llave",
        "code": "30188",
        "lat": 19.226190284094507,
        "lon": -96.8970465764691,
        "hasSupercharger": false,
        "edges": []
    },
    "25005": {
        "name": "Cosal\u00e1",
        "state": "Sinaloa",
        "code": "25005",
        "lat": 24.481483687102124,
        "lon": -106.79943651233371,
        "hasSupercharger": false,
        "edges": [
            {
                "fromMuniCode": "25005",
                "toMuniCode": "25006",
                "distance": 31.634483585788516
            },
            {
                "fromMuniCode": "25005",
                "toMuniCode": "10034",
                "distance": 32.619282616480106
            }
        ]
    },
    "16099": {
        "name": "Tuzantla",
        "state": "Michoac\u00e1n de Ocampo",
        "code": "16099",
        "lat": 19.221801987013755,
        "lon": -100.61795021588124,
        "hasSupercharger": false,
        "edges": [
            {
                "fromMuniCode": "16099",
                "toMuniCode": "16092",
                "distance": 16.23588674567664
            },
            {
                "fromMuniCode": "16099",
                "toMuniCode": "15066",
                "distance": 20.977916556488267
            }
        ]
    },
    "13016": {
        "name": "Cuautepec de Hinojosa",
        "state": "Hidalgo",
        "code": "13016",
        "lat": 19.984303693609295,
        "lon": -98.28167001976244,
        "hasSupercharger": false,
        "edges": [
            {
                "fromMuniCode": "13016",
                "toMuniCode": "13056",
                "distance": 8.040034451379702
            }
        ]
    },
    "15066": {
        "name": "Otzoloapan",
        "state": "M\u00e9xico",
        "code": "15066",
        "lat": 19.10734661449826,
        "lon": -100.32030708383594,
        "hasSupercharger": false,
        "edges": [
            {
                "fromMuniCode": "15066",
                "toMuniCode": "16099",
                "distance": 20.977916556488267
            }
        ]
    },
    "20383": {
        "name": "Santa Cruz Tayata",
        "state": "Oaxaca",
        "code": "20383",
        "lat": 17.376705253430874,
        "lon": -97.56795458463259,
        "hasSupercharger": false,
        "edges": []
    },
    "21053": {
        "name": "Chignahuapan",
        "state": "Puebla",
        "code": "21053",
        "lat": 19.82102706098345,
        "lon": -98.13474514037817,
        "hasSupercharger": false,
        "edges": []
    },
    "08035": {
        "name": "Janos",
        "state": "Chihuahua",
        "code": "08035",
        "lat": 30.849353234549387,
        "lon": -108.4502250304761,
        "hasSupercharger": false,
        "edges": []
    },
    "25006": {
        "name": "Culiac\u00e1n",
        "state": "Sinaloa",
        "code": "25006",
        "lat": 24.65128387362335,
        "lon": -107.26684207429935,
        "hasSupercharger": false,
        "edges": [
            {
                "fromMuniCode": "25006",
                "toMuniCode": "25005",
                "distance": 31.634483585788516
            },
            {
                "fromMuniCode": "25006",
                "toMuniCode": "10034",
                "distance": 40.355725311310906
            }
        ]
    },
    "14116": {
        "name": "Villa Hidalgo",
        "state": "Jalisco",
        "code": "14116",
        "lat": 21.667714374262424,
        "lon": -102.59359672594567,
        "hasSupercharger": false,
        "edges": []
    },
    "21030": {
        "name": "Coatepec",
        "state": "Puebla",
        "code": "21030",
        "lat": 20.055148508659506,
        "lon": -97.73105333844344,
        "hasSupercharger": false,
        "edges": [
            {
                "fromMuniCode": "21030",
                "toMuniCode": "21080",
                "distance": 7.291333778775804
            }
        ]
    },
    "20047": {
        "name": "Santa Magdalena Jicotl\u00e1n",
        "state": "Oaxaca",
        "code": "20047",
        "lat": 17.80660944189078,
        "lon": -97.48179250419878,
        "hasSupercharger": false,
        "edges": [
            {
                "fromMuniCode": "20047",
                "toMuniCode": "20556",
                "distance": 2.411217521292629
            },
            {
                "fromMuniCode": "20047",
                "toMuniCode": "20464",
                "distance": 5.599265923905315
            },
            {
                "fromMuniCode": "20047",
                "toMuniCode": "20552",
                "distance": 4.538705936860685
            }
        ]
    },
    "05021": {
        "name": "Nadadores",
        "state": "Coahuila de Zaragoza",
        "code": "05021",
        "lat": 27.227731028297608,
        "lon": -101.76542565563155,
        "hasSupercharger": false,
        "edges": [
            {
                "fromMuniCode": "05021",
                "toMuniCode": "05001",
                "distance": 32.76633418800573
            },
            {
                "fromMuniCode": "05021",
                "toMuniCode": "05008",
                "distance": 30.331351078265534
            }
        ]
    },
    "20154": {
        "name": "San Ildefonso Amatl\u00e1n",
        "state": "Oaxaca",
        "code": "20154",
        "lat": 16.28938713869818,
        "lon": -96.45374224179214,
        "hasSupercharger": false,
        "edges": [
            {
                "fromMuniCode": "20154",
                "toMuniCode": "20126",
                "distance": 4.852873567551632
            }
        ]
    },
    "20506": {
        "name": "Santo Domingo Albarradas",
        "state": "Oaxaca",
        "code": "20506",
        "lat": 17.071218945490408,
        "lon": -96.21035709045744,
        "hasSupercharger": false,
        "edges": [
            {
                "fromMuniCode": "20506",
                "toMuniCode": "20299",
                "distance": 3.7495856982109403
            }
        ]
    },
    "28029": {
        "name": "Ocampo",
        "state": "Tamaulipas",
        "code": "28029",
        "lat": 22.82979945684654,
        "lon": -99.33585545035726,
        "hasSupercharger": false,
        "edges": [
            {
                "fromMuniCode": "28029",
                "toMuniCode": "24058",
                "distance": 23.554002572804656
            },
            {
                "fromMuniCode": "28029",
                "toMuniCode": "28031",
                "distance": 33.849821310581
            }
        ]
    },
    "27008": {
        "name": "Huimanguillo",
        "state": "Tabasco",
        "code": "27008",
        "lat": 17.826390240951458,
        "lon": -93.69981957747787,
        "hasSupercharger": false,
        "edges": [
            {
                "fromMuniCode": "27008",
                "toMuniCode": "30061",
                "distance": 26.27680860813564
            },
            {
                "fromMuniCode": "27008",
                "toMuniCode": "07074",
                "distance": 31.05708625617182
            }
        ]
    },
    "05001": {
        "name": "Abasolo",
        "state": "Coahuila de Zaragoza",
        "code": "05001",
        "lat": 27.122394267176908,
        "lon": -101.24578213393255,
        "hasSupercharger": false,
        "edges": [
            {
                "fromMuniCode": "05001",
                "toMuniCode": "05008",
                "distance": 12.862039935480933
            },
            {
                "fromMuniCode": "05001",
                "toMuniCode": "05026",
                "distance": 24.837104535558414
            },
            {
                "fromMuniCode": "05001",
                "toMuniCode": "05021",
                "distance": 32.76633418800573
            }
        ]
    },
    "31106": {
        "name": "Yoba\u00edn",
        "state": "Yucat\u00e1n",
        "code": "31106",
        "lat": 21.288177469637905,
        "lon": -89.12038649404185,
        "hasSupercharger": false,
        "edges": [
            {
                "fromMuniCode": "31106",
                "toMuniCode": "31082",
                "distance": 9.991606624827686
            }
        ]
    },
    "08046": {
        "name": "Morelos",
        "state": "Chihuahua",
        "code": "08046",
        "lat": 26.571533067493014,
        "lon": -107.72813133210549,
        "hasSupercharger": false,
        "edges": []
    },
    "13057": {
        "name": "Singuilucan",
        "state": "Hidalgo",
        "code": "13057",
        "lat": 19.987602571626738,
        "lon": -98.49546246959169,
        "hasSupercharger": false,
        "edges": [
            {
                "fromMuniCode": "13057",
                "toMuniCode": "13056",
                "distance": 7.4493139842411775
            },
            {
                "fromMuniCode": "13057",
                "toMuniCode": "13039",
                "distance": 14.963452602333387
            }
        ]
    },
    "20561": {
        "name": "Yaxe",
        "state": "Oaxaca",
        "code": "20561",
        "lat": 16.708647487604644,
        "lon": -96.44799301277124,
        "hasSupercharger": false,
        "edges": []
    },
    "13006": {
        "name": "Alfajayucan",
        "state": "Hidalgo",
        "code": "13006",
        "lat": 20.407088658085215,
        "lon": -99.40540526576191,
        "hasSupercharger": false,
        "edges": [
            {
                "fromMuniCode": "13006",
                "toMuniCode": "13058",
                "distance": 9.540619201304999
            }
        ]
    },
    "32008": {
        "name": "Cuauht\u00e9moc",
        "state": "Zacatecas",
        "code": "32008",
        "lat": 22.448730038286072,
        "lon": -102.390196874772,
        "hasSupercharger": false,
        "edges": [
            {
                "fromMuniCode": "32008",
                "toMuniCode": "32025",
                "distance": 10.563432003960166
            },
            {
                "fromMuniCode": "32008",
                "toMuniCode": "32057",
                "distance": 21.787998268197843
            },
            {
                "fromMuniCode": "32008",
                "toMuniCode": "01007",
                "distance": 12.923608598491745
            },
            {
                "fromMuniCode": "32008",
                "toMuniCode": "32036",
                "distance": 13.83556860926028
            }
        ]
    },
    "14114": {
        "name": "Villa Corona",
        "state": "Jalisco",
        "code": "14114",
        "lat": 20.389652262280414,
        "lon": -103.70886206719051,
        "hasSupercharger": false,
        "edges": [
            {
                "fromMuniCode": "14114",
                "toMuniCode": "14010",
                "distance": 15.04863539373251
            }
        ]
    },
    "12058": {
        "name": "Teloloapan",
        "state": "Guerrero",
        "code": "12058",
        "lat": 18.358261582427282,
        "lon": -99.91407548104415,
        "hasSupercharger": false,
        "edges": [
            {
                "fromMuniCode": "12058",
                "toMuniCode": "12031",
                "distance": 13.71841688515285
            }
        ]
    },
    "31082": {
        "name": "Telchac Pueblo",
        "state": "Yucat\u00e1n",
        "code": "31082",
        "lat": 21.21748245717705,
        "lon": -89.25570629054205,
        "hasSupercharger": false,
        "edges": [
            {
                "fromMuniCode": "31082",
                "toMuniCode": "31106",
                "distance": 9.991606624827686
            }
        ]
    },
    "20523": {
        "name": "Santo Domingo Yanhuitl\u00e1n",
        "state": "Oaxaca",
        "code": "20523",
        "lat": 17.532967909386205,
        "lon": -97.34822171873435,
        "hasSupercharger": false,
        "edges": []
    },
    "20345": {
        "name": "San Sebasti\u00e1n Ixcapa",
        "state": "Oaxaca",
        "code": "20345",
        "lat": 16.525932345258457,
        "lon": -98.14954369051492,
        "hasSupercharger": false,
        "edges": [
            {
                "fromMuniCode": "20345",
                "toMuniCode": "20111",
                "distance": 6.815286592177905
            }
        ]
    },
    "20303": {
        "name": "San Pedro Cajonos",
        "state": "Oaxaca",
        "code": "20303",
        "lat": 17.16344585066975,
        "lon": -96.26205455028976,
        "hasSupercharger": false,
        "edges": [
            {
                "fromMuniCode": "20303",
                "toMuniCode": "20138",
                "distance": 1.2155954891448164
            },
            {
                "fromMuniCode": "20303",
                "toMuniCode": "20503",
                "distance": 3.7556879431748373
            },
            {
                "fromMuniCode": "20303",
                "toMuniCode": "20299",
                "distance": 3.977618440192329
            }
        ]
    },
    "17024": {
        "name": "Tlaltizap\u00e1n de Zapata",
        "state": "Morelos",
        "code": "17024",
        "lat": 18.704947875959864,
        "lon": -99.10824163062071,
        "hasSupercharger": false,
        "edges": [
            {
                "fromMuniCode": "17024",
                "toMuniCode": "17031",
                "distance": 7.061238304819939
            },
            {
                "fromMuniCode": "17024",
                "toMuniCode": "17028",
                "distance": 9.19809253122092
            }
        ]
    },
    "02002": {
        "name": "Mexicali",
        "state": "Baja California",
        "code": "02002",
        "lat": 32.16922728784343,
        "lon": -115.32966650609973,
        "hasSupercharger": false,
        "edges": [
            {
                "fromMuniCode": "02002",
                "toMuniCode": "02001",
                "distance": 62.23689879442157
            }
        ]
    },
    "20406": {
        "name": "Santa Mar\u00eda Chilchotla",
        "state": "Oaxaca",
        "code": "20406",
        "lat": 18.293066134200387,
        "lon": -96.74620632496864,
        "hasSupercharger": false,
        "edges": [
            {
                "fromMuniCode": "20406",
                "toMuniCode": "20029",
                "distance": 10.559751888060482
            }
        ]
    },
    "14037": {
        "name": "El Grullo",
        "state": "Jalisco",
        "code": "14037",
        "lat": 19.80105252832319,
        "lon": -104.19512257950244,
        "hasSupercharger": false,
        "edges": [
            {
                "fromMuniCode": "14037",
                "toMuniCode": "14054",
                "distance": 6.747690699309459
            },
            {
                "fromMuniCode": "14037",
                "toMuniCode": "14034",
                "distance": 10.66095185509612
            },
            {
                "fromMuniCode": "14037",
                "toMuniCode": "14110",
                "distance": 13.828557317058442
            }
        ]
    },
    "20436": {
        "name": "Santa Mar\u00eda Texcatitl\u00e1n",
        "state": "Oaxaca",
        "code": "20436",
        "lat": 17.722368111264306,
        "lon": -97.05049527775574,
        "hasSupercharger": false,
        "edges": [
            {
                "fromMuniCode": "20436",
                "toMuniCode": "20395",
                "distance": 7.026871407590845
            },
            {
                "fromMuniCode": "20436",
                "toMuniCode": "20264",
                "distance": 11.75720064755326
            }
        ]
    },
    "20490": {
        "name": "Santiago Texcalcingo",
        "state": "Oaxaca",
        "code": "20490",
        "lat": 18.21512627236231,
        "lon": -96.97875428307646,
        "hasSupercharger": false,
        "edges": [
            {
                "fromMuniCode": "20490",
                "toMuniCode": "21035",
                "distance": 9.3302454758994
            }
        ]
    },
    "16092": {
        "name": "Tiquicheo de Nicol\u00e1s Romero",
        "state": "Michoac\u00e1n de Ocampo",
        "code": "16092",
        "lat": 19.057186232806163,
        "lon": -100.79537631282624,
        "hasSupercharger": false,
        "edges": [
            {
                "fromMuniCode": "16092",
                "toMuniCode": "16099",
                "distance": 16.23588674567664
            }
        ]
    },
    "20372": {
        "name": "Santa Catarina Yosonot\u00fa",
        "state": "Oaxaca",
        "code": "20372",
        "lat": 17.00782185900278,
        "lon": -97.67265411820016,
        "hasSupercharger": false,
        "edges": [
            {
                "fromMuniCode": "20372",
                "toMuniCode": "20133",
                "distance": 4.944105378470953
            }
        ]
    },
    "21006": {
        "name": "Ahuacatl\u00e1n",
        "state": "Puebla",
        "code": "21006",
        "lat": 20.026946563676045,
        "lon": -97.8676835742916,
        "hasSupercharger": false,
        "edges": [
            {
                "fromMuniCode": "21006",
                "toMuniCode": "21167",
                "distance": 5.436844127304782
            }
        ]
    },
    "25009": {
        "name": "Escuinapa",
        "state": "Sinaloa",
        "code": "25009",
        "lat": 22.72399805905083,
        "lon": -105.68586865001764,
        "hasSupercharger": false,
        "edges": [
            {
                "fromMuniCode": "25009",
                "toMuniCode": "18001",
                "distance": 32.59929426346288
            }
        ]
    },
    "08006": {
        "name": "Bach\u00edniva",
        "state": "Chihuahua",
        "code": "08006",
        "lat": 28.857994929919663,
        "lon": -107.29164178424237,
        "hasSupercharger": false,
        "edges": [
            {
                "fromMuniCode": "08006",
                "toMuniCode": "08043",
                "distance": 26.074749527594957
            },
            {
                "fromMuniCode": "08006",
                "toMuniCode": "08048",
                "distance": 31.569317478105997
            }
        ]
    },
    "20118": {
        "name": "San Bartolom\u00e9 Quialana",
        "state": "Oaxaca",
        "code": "20118",
        "lat": 16.896724998147274,
        "lon": -96.50006200654636,
        "hasSupercharger": false,
        "edges": [
            {
                "fromMuniCode": "20118",
                "toMuniCode": "20380",
                "distance": 6.747783262865141
            }
        ]
    },
    "13041": {
        "name": "Mixquiahuala de Ju\u00e1rez",
        "state": "Hidalgo",
        "code": "13041",
        "lat": 20.22384808512703,
        "lon": -99.18072211257976,
        "hasSupercharger": false,
        "edges": [
            {
                "fromMuniCode": "13041",
                "toMuniCode": "13054",
                "distance": 10.268808488447347
            },
            {
                "fromMuniCode": "13041",
                "toMuniCode": "13065",
                "distance": 7.79195388671407
            }
        ]
    },
    "15032": {
        "name": "Donato Guerra",
        "state": "M\u00e9xico",
        "code": "15032",
        "lat": 19.316450804342963,
        "lon": -100.18484882450893,
        "hasSupercharger": false,
        "edges": []
    },
    "20064": {
        "name": "Nejapa de Madero",
        "state": "Oaxaca",
        "code": "20064",
        "lat": 16.66869408189354,
        "lon": -95.79415546820886,
        "hasSupercharger": false,
        "edges": [
            {
                "fromMuniCode": "20064",
                "toMuniCode": "20325",
                "distance": 17.301768429830563
            }
        ]
    },
    "20555": {
        "name": "Trinidad Zaachila",
        "state": "Oaxaca",
        "code": "20555",
        "lat": 16.929513790873678,
        "lon": -96.7923598259912,
        "hasSupercharger": false,
        "edges": []
    },
    "20395": {
        "name": "Santa Mar\u00eda Apazco",
        "state": "Oaxaca",
        "code": "20395",
        "lat": 17.624708919291038,
        "lon": -97.08020638126948,
        "hasSupercharger": false,
        "edges": [
            {
                "fromMuniCode": "20395",
                "toMuniCode": "20304",
                "distance": 7.416712831721168
            },
            {
                "fromMuniCode": "20395",
                "toMuniCode": "20436",
                "distance": 7.026871407590845
            },
            {
                "fromMuniCode": "20395",
                "toMuniCode": "20264",
                "distance": 7.774248710338387
            }
        ]
    },
    "30171": {
        "name": "Texhuac\u00e1n",
        "state": "Veracruz de Ignacio de la Llave",
        "code": "30171",
        "lat": 18.61899581069823,
        "lon": -97.03206390731738,
        "hasSupercharger": false,
        "edges": []
    },
    "20091": {
        "name": "San Andr\u00e9s Huay\u00e1pam",
        "state": "Oaxaca",
        "code": "20091",
        "lat": 17.127465293289802,
        "lon": -96.66729086917317,
        "hasSupercharger": false,
        "edges": [
            {
                "fromMuniCode": "20091",
                "toMuniCode": "20390",
                "distance": 4.595204812927355
            }
        ]
    },
    "20249": {
        "name": "San Mateo Yoloxochitl\u00e1n",
        "state": "Oaxaca",
        "code": "20249",
        "lat": 18.141187474470563,
        "lon": -96.86895139803741,
        "hasSupercharger": false,
        "edges": [
            {
                "fromMuniCode": "20249",
                "toMuniCode": "20041",
                "distance": 4.53573135187294
            },
            {
                "fromMuniCode": "20249",
                "toMuniCode": "20029",
                "distance": 3.6944193575988624
            }
        ]
    },
    "07057": {
        "name": "Motozintla",
        "state": "Chiapas",
        "code": "07057",
        "lat": 15.313824503193358,
        "lon": -92.33146379762209,
        "hasSupercharger": false,
        "edges": [
            {
                "fromMuniCode": "07057",
                "toMuniCode": "07080",
                "distance": 15.200885903315264
            }
        ]
    },
    "20449": {
        "name": "Santa Mar\u00eda Zoquitl\u00e1n",
        "state": "Oaxaca",
        "code": "20449",
        "lat": 16.559043563754756,
        "lon": -96.3704048937714,
        "hasSupercharger": false,
        "edges": [
            {
                "fromMuniCode": "20449",
                "toMuniCode": "20235",
                "distance": 10.25411160048141
            },
            {
                "fromMuniCode": "20449",
                "toMuniCode": "20333",
                "distance": 11.7849381611516
            }
        ]
    },
    "13058": {
        "name": "Tasquillo",
        "state": "Hidalgo",
        "code": "13058",
        "lat": 20.542334323141652,
        "lon": -99.37583528101482,
        "hasSupercharger": false,
        "edges": [
            {
                "fromMuniCode": "13058",
                "toMuniCode": "13006",
                "distance": 9.540619201304999
            }
        ]
    },
    "07072": {
        "name": "Pueblo Nuevo Solistahuac\u00e1n",
        "state": "Chiapas",
        "code": "07072",
        "lat": 17.218028557684043,
        "lon": -92.86173830597012,
        "hasSupercharger": false,
        "edges": []
    },
    "20464": {
        "name": "Santiago Ihuitl\u00e1n Plumas",
        "state": "Oaxaca",
        "code": "20464",
        "lat": 17.88109718182472,
        "lon": -97.44830499807296,
        "hasSupercharger": false,
        "edges": [
            {
                "fromMuniCode": "20464",
                "toMuniCode": "20552",
                "distance": 1.8980357199588846
            },
            {
                "fromMuniCode": "20464",
                "toMuniCode": "20047",
                "distance": 5.599265923905315
            }
        ]
    },
    "21009": {
        "name": "Ahuehuetitla",
        "state": "Puebla",
        "code": "21009",
        "lat": 18.23128950575356,
        "lon": -98.1911149012577,
        "hasSupercharger": false,
        "edges": [
            {
                "fromMuniCode": "21009",
                "toMuniCode": "21157",
                "distance": 11.215664814468614
            }
        ]
    },
    "20280": {
        "name": "Villa Talea de Castro",
        "state": "Oaxaca",
        "code": "20280",
        "lat": 17.367384974030756,
        "lon": -96.23183564098274,
        "hasSupercharger": false,
        "edges": [
            {
                "fromMuniCode": "20280",
                "toMuniCode": "20128",
                "distance": 3.9118034161382065
            }
        ]
    },
    "14030": {
        "name": "Chapala",
        "state": "Jalisco",
        "code": "14030",
        "lat": 20.25986130895013,
        "lon": -103.1879082234695,
        "hasSupercharger": false,
        "edges": [
            {
                "fromMuniCode": "14030",
                "toMuniCode": "14107",
                "distance": 8.559326389417777
            },
            {
                "fromMuniCode": "14030",
                "toMuniCode": "14050",
                "distance": 15.333666801173369
            },
            {
                "fromMuniCode": "14030",
                "toMuniCode": "14051",
                "distance": 15.70772841291125
            }
        ]
    },
    "30061": {
        "name": "Las Choapas",
        "state": "Veracruz de Ignacio de la Llave",
        "code": "30061",
        "lat": 17.535833401911567,
        "lon": -93.95723431613412,
        "hasSupercharger": false,
        "edges": [
            {
                "fromMuniCode": "30061",
                "toMuniCode": "27008",
                "distance": 26.27680860813564
            }
        ]
    },
    "26063": {
        "name": "Tepache",
        "state": "Sonora",
        "code": "26063",
        "lat": 29.472230278782767,
        "lon": -109.5279344453172,
        "hasSupercharger": false,
        "edges": []
    },
    "20133": {
        "name": "San Esteban Atatlahuca",
        "state": "Oaxaca",
        "code": "20133",
        "lat": 17.076935921963234,
        "lon": -97.69198117486702,
        "hasSupercharger": false,
        "edges": [
            {
                "fromMuniCode": "20133",
                "toMuniCode": "20372",
                "distance": 4.944105378470953
            },
            {
                "fromMuniCode": "20133",
                "toMuniCode": "20379",
                "distance": 5.661468332106993
            }
        ]
    },
    "05026": {
        "name": "Progreso",
        "state": "Coahuila de Zaragoza",
        "code": "05026",
        "lat": 27.421422192827457,
        "lon": -101.02148231033698,
        "hasSupercharger": false,
        "edges": [
            {
                "fromMuniCode": "05026",
                "toMuniCode": "05008",
                "distance": 17.734328460349943
            },
            {
                "fromMuniCode": "05026",
                "toMuniCode": "05001",
                "distance": 24.837104535558414
            },
            {
                "fromMuniCode": "05026",
                "toMuniCode": "05028",
                "distance": 35.443323654971145
            }
        ]
    },
    "20361": {
        "name": "Santa Catalina Quier\u00ed",
        "state": "Oaxaca",
        "code": "20361",
        "lat": 16.329610109021456,
        "lon": -96.24174871430824,
        "hasSupercharger": false,
        "edges": [
            {
                "fromMuniCode": "20361",
                "toMuniCode": "20074",
                "distance": 2.3596133446374568
            },
            {
                "fromMuniCode": "20361",
                "toMuniCode": "20428",
                "distance": 12.709895522555964
            }
        ]
    },
    "14060": {
        "name": "Mexticac\u00e1n",
        "state": "Jalisco",
        "code": "14060",
        "lat": 21.263855597183646,
        "lon": -102.75353832693932,
        "hasSupercharger": false,
        "edges": []
    },
    "13056": {
        "name": "Santiago Tulantepec de Lugo Guerrero",
        "state": "Hidalgo",
        "code": "13056",
        "lat": 20.035652174635995,
        "lon": -98.39277195112727,
        "hasSupercharger": false,
        "edges": [
            {
                "fromMuniCode": "13056",
                "toMuniCode": "13016",
                "distance": 8.040034451379702
            },
            {
                "fromMuniCode": "13056",
                "toMuniCode": "13057",
                "distance": 7.4493139842411775
            }
        ]
    },
    "17018": {
        "name": "Temixco",
        "state": "Morelos",
        "code": "17018",
        "lat": 18.842525189901682,
        "lon": -99.27224154015882,
        "hasSupercharger": false,
        "edges": [
            {
                "fromMuniCode": "17018",
                "toMuniCode": "17028",
                "distance": 6.074475969179962
            }
        ]
    },
    "20060": {
        "name": "Mixistl\u00e1n de la Reforma",
        "state": "Oaxaca",
        "code": "20060",
        "lat": 17.16538673358047,
        "lon": -96.10405084059214,
        "hasSupercharger": false,
        "edges": [
            {
                "fromMuniCode": "20060",
                "toMuniCode": "20437",
                "distance": 4.851737703405712
            }
        ]
    },
    "32036": {
        "name": "Ojocaliente",
        "state": "Zacatecas",
        "code": "32036",
        "lat": 22.56837615600603,
        "lon": -102.21644412896744,
        "hasSupercharger": false,
        "edges": [
            {
                "fromMuniCode": "32036",
                "toMuniCode": "32053",
                "distance": 16.804869246835985
            },
            {
                "fromMuniCode": "32036",
                "toMuniCode": "32057",
                "distance": 14.303810218824184
            },
            {
                "fromMuniCode": "32036",
                "toMuniCode": "32025",
                "distance": 9.284213247956007
            },
            {
                "fromMuniCode": "32036",
                "toMuniCode": "32008",
                "distance": 13.83556860926028
            },
            {
                "fromMuniCode": "32036",
                "toMuniCode": "01007",
                "distance": 22.26345007047948
            }
        ]
    },
    "15025": {
        "name": "Chalco",
        "state": "M\u00e9xico",
        "code": "15025",
        "lat": 19.253595364910407,
        "lon": -98.83168677534364,
        "hasSupercharger": false,
        "edges": [
            {
                "fromMuniCode": "15025",
                "toMuniCode": "15103",
                "distance": 7.2025182853915
            }
        ]
    },
    "24012": {
        "name": "Tancanhuitz",
        "state": "San Luis Potos\u00ed",
        "code": "24012",
        "lat": 21.63166162905049,
        "lon": -98.95970391823094,
        "hasSupercharger": false,
        "edges": [
            {
                "fromMuniCode": "24012",
                "toMuniCode": "24039",
                "distance": 13.26444180905917
            }
        ]
    },
    "20533": {
        "name": "Santo Tom\u00e1s Tamazulapan",
        "state": "Oaxaca",
        "code": "20533",
        "lat": 16.241828646712595,
        "lon": -96.58043836430403,
        "hasSupercharger": false,
        "edges": []
    },
    "08034": {
        "name": "Ignacio Zaragoza",
        "state": "Chihuahua",
        "code": "08034",
        "lat": 29.722092881358044,
        "lon": -107.72354026897405,
        "hasSupercharger": false,
        "edges": []
    },
    "11035": {
        "name": "Santa Cruz de Juventino Rosas",
        "state": "Guanajuato",
        "code": "11035",
        "lat": 20.674106215574838,
        "lon": -100.99408214661261,
        "hasSupercharger": false,
        "edges": [
            {
                "fromMuniCode": "11035",
                "toMuniCode": "11018",
                "distance": 22.11148176928064
            }
        ]
    },
    "08027": {
        "name": "Guachochi",
        "state": "Chihuahua",
        "code": "08027",
        "lat": 27.150440168047474,
        "lon": -107.24776544541437,
        "hasSupercharger": false,
        "edges": []
    },
    "07092": {
        "name": "Tecpat\u00e1n",
        "state": "Chiapas",
        "code": "07092",
        "lat": 17.17295678845135,
        "lon": -93.39546236168229,
        "hasSupercharger": false,
        "edges": []
    },
    "21039": {
        "name": "Cuautempan",
        "state": "Puebla",
        "code": "21039",
        "lat": 19.913561804249117,
        "lon": -97.79212434205913,
        "hasSupercharger": false,
        "edges": [
            {
                "fromMuniCode": "21039",
                "toMuniCode": "21167",
                "distance": 4.671774413538883
            }
        ]
    },
    "20212": {
        "name": "San Juan Petlapa",
        "state": "Oaxaca",
        "code": "20212",
        "lat": 17.489922758570824,
        "lon": -96.0477270952236,
        "hasSupercharger": false,
        "edges": []
    },
    "09003": {
        "name": "Coyoac\u00e1n",
        "state": "Ciudad de M\u00e9xico",
        "code": "09003",
        "lat": 19.326669573474458,
        "lon": -99.15037508813221,
        "hasSupercharger": false,
        "edges": [
            {
                "fromMuniCode": "09003",
                "toMuniCode": "09015",
                "distance": 7.236460875265884
            }
        ]
    },
    "12029": {
        "name": "Chilpancingo de los Bravo",
        "state": "Guerrero",
        "code": "12029",
        "lat": 17.390831410744063,
        "lon": -99.69744667632656,
        "hasSupercharger": true,
        "edges": [
            {
                "fromMuniCode": "12029",
                "toMuniCode": "12040",
                "distance": 17.878604839675816
            }
        ]
    },
    "09004": {
        "name": "Cuajimalpa de Morelos",
        "state": "Ciudad de M\u00e9xico",
        "code": "09004",
        "lat": 19.32431769429922,
        "lon": -99.31093559934725,
        "hasSupercharger": true,
        "edges": []
    },
    "20276": {
        "name": "San Miguel Santa Flor",
        "state": "Oaxaca",
        "code": "20276",
        "lat": 17.919871096940007,
        "lon": -96.79768157364332,
        "hasSupercharger": false,
        "edges": []
    },
    "14105": {
        "name": "Tototl\u00e1n",
        "state": "Jalisco",
        "code": "14105",
        "lat": 20.548723870768402,
        "lon": -102.74871656296243,
        "hasSupercharger": false,
        "edges": [
            {
                "fromMuniCode": "14105",
                "toMuniCode": "14063",
                "distance": 10.576070074741006
            },
            {
                "fromMuniCode": "14105",
                "toMuniCode": "14093",
                "distance": 18.478626625554675
            },
            {
                "fromMuniCode": "14105",
                "toMuniCode": "14013",
                "distance": 13.531673994496062
            },
            {
                "fromMuniCode": "14105",
                "toMuniCode": "14047",
                "distance": 19.005342350142477
            }
        ]
    },
    "13029": {
        "name": "Huichapan",
        "state": "Hidalgo",
        "code": "13029",
        "lat": 20.38381460608666,
        "lon": -99.68073637718862,
        "hasSupercharger": false,
        "edges": []
    },
    "31101": {
        "name": "Um\u00e1n",
        "state": "Yucat\u00e1n",
        "code": "31101",
        "lat": 20.853158478222415,
        "lon": -89.76461052279582,
        "hasSupercharger": false,
        "edges": [
            {
                "fromMuniCode": "31101",
                "toMuniCode": "31063",
                "distance": 9.927550846370757
            }
        ]
    },
    "13073": {
        "name": "Tlanchinol",
        "state": "Hidalgo",
        "code": "13073",
        "lat": 21.031832420532474,
        "lon": -98.6481817725818,
        "hasSupercharger": false,
        "edges": [
            {
                "fromMuniCode": "13073",
                "toMuniCode": "13062",
                "distance": 12.090978848233226
            }
        ]
    },
    "15076": {
        "name": "San Mateo Atenco",
        "state": "M\u00e9xico",
        "code": "15076",
        "lat": 19.268950591061145,
        "lon": -99.54224850876975,
        "hasSupercharger": false,
        "edges": [
            {
                "fromMuniCode": "15076",
                "toMuniCode": "15027",
                "distance": 4.347002213955902
            }
        ]
    },
    "30070": {
        "name": "Hidalgotitl\u00e1n",
        "state": "Veracruz de Ignacio de la Llave",
        "code": "30070",
        "lat": 17.560947023111115,
        "lon": -94.6248382036754,
        "hasSupercharger": false,
        "edges": []
    },
    "20542": {
        "name": "Taniche",
        "state": "Oaxaca",
        "code": "20542",
        "lat": 16.5712996631274,
        "lon": -96.76930897019965,
        "hasSupercharger": false,
        "edges": [
            {
                "fromMuniCode": "20542",
                "toMuniCode": "20268",
                "distance": 2.7661042660504283
            },
            {
                "fromMuniCode": "20542",
                "toMuniCode": "20028",
                "distance": 3.059126289460186
            }
        ]
    },
    "30006": {
        "name": "Acultzingo",
        "state": "Veracruz de Ignacio de la Llave",
        "code": "30006",
        "lat": 18.716145078148763,
        "lon": -97.27642881085521,
        "hasSupercharger": false,
        "edges": [
            {
                "fromMuniCode": "30006",
                "toMuniCode": "30018",
                "distance": 5.921960263498156
            }
        ]
    },